country,state,city,station,last_update,latitude,longitude,pollutant_id,pollutant_min,pollutant_max,pollutant_avg
India,Bihar,Manguraha,"Forest Rest House, Manguraha - BSPCB","13-01-2026 14:00:00",27.308328,84.531742,PM10,58,205,98
India,Bihar,Manguraha,"Forest Rest House, Manguraha - BSPCB","13-01-2026 14:00:00",27.308328,84.531742,NH3,1,2,1
India,Bihar,Motihari,"Gandak Colony, Motihari - BSPCB","13-01-2026 14:00:00",26.63086,84.90051,PM2.5,58,325,127
India,Bihar,Motihari,"Gandak Colony, Motihari - BSPCB","13-01-2026 14:00:00",26.63086,84.90051,NH3,3,3,3
India,Bihar,Motihari,"Gandak Colony, Motihari - BSPCB","13-01-2026 14:00:00",26.63086,84.90051,CO,16,29,18
India,Bihar,Motihari,"Gandak Colony, Motihari - BSPCB","13-01-2026 14:00:00",26.63086,84.90051,OZONE,2,8,5
India,Bihar,Munger,"Town Hall, Munger - BSPCB","13-01-2026 14:00:00",25.376776,86.471523,PM2.5,67,153,94
India,Bihar,Munger,"Town Hall, Munger - BSPCB","13-01-2026 14:00:00",25.376776,86.471523,PM10,53,101,72
India,Bihar,Munger,"Town Hall, Munger - BSPCB","13-01-2026 14:00:00",25.376776,86.471523,SO2,36,86,56
India,Bihar,Munger,"Town Hall, Munger - BSPCB","13-01-2026 14:00:00",25.376776,86.471523,CO,12,156,23
India,Bihar,Muzaffarpur,"Buddha Colony, Muzaffarpur - BSPCB","13-01-2026 14:00:00",26.11442,85.39813,CO,26,144,48
India,Bihar,Muzaffarpur,"Muzaffarpur Collectorate, Muzaffarpur - BSPCB","13-01-2026 14:00:00",26.1209,85.3647,PM2.5,92,135,118
India,Bihar,Muzaffarpur,"Muzaffarpur Collectorate, Muzaffarpur - BSPCB","13-01-2026 14:00:00",26.1209,85.3647,NO2,10,17,14
India,Bihar,Muzaffarpur,"Muzaffarpur Collectorate, Muzaffarpur - BSPCB","13-01-2026 14:00:00",26.1209,85.3647,SO2,4,8,6
India,Bihar,Patna,"DRM Office Danapur, Patna - BSPCB","13-01-2026 14:00:00",25.586562,85.043586,NO2,32,104,58
India,Bihar,Patna,"Govt. High School Shikarpur, Patna - BSPCB","13-01-2026 14:00:00",25.592539,85.227158,PM2.5,61,78,72
India,Bihar,Patna,"Govt. High School Shikarpur, Patna - BSPCB","13-01-2026 14:00:00",25.592539,85.227158,NO2,13,18,16
India,Bihar,Patna,"Govt. High School Shikarpur, Patna - BSPCB","13-01-2026 14:00:00",25.592539,85.227158,CO,8,71,44
India,Bihar,Patna,"IGSC Planetarium Complex, Patna - BSPCB","13-01-2026 14:00:00",25.610369,85.132568,PM2.5,49,251,126
India,Bihar,Patna,"Muradpur, Patna - BSPCB","13-01-2026 14:00:00",25.619651,85.147382,NH3,4,5,5
India,Andhra_Pradesh,Rajamahendravaram,"Anand Kala Kshetram, Rajamahendravaram - APPCB","13-01-2026 14:00:00",16.9872867,81.7363176,OZONE,11,27,18
India,Andhra_Pradesh,Tirumala,"Toll Gate, Tirumala - APPCB","13-01-2026 14:00:00",13.67,79.35,NH3,1,3,2
India,Andhra_Pradesh,Tirumala,"Toll Gate, Tirumala - APPCB","13-01-2026 14:00:00",13.67,79.35,SO2,2,10,4
India,Andhra_Pradesh,Tirupati,"Vaikuntapuram, Tirupati - APPCB","13-01-2026 14:00:00",13.615387,79.409230,PM2.5,67,248,102
India,Andhra_Pradesh,Tirupati,"Vaikuntapuram, Tirupati - APPCB","13-01-2026 14:00:00",13.615387,79.409230,CO,16,34,24
India,Andhra_Pradesh,Vijayawada,"HB Colony, Vijayawada - APPCB","13-01-2026 14:00:00",16.536107,80.594233,PM10,67,90,77
India,Andhra_Pradesh,Vijayawada,"Kanuru, Vijayawada - APPCB","13-01-2026 14:00:00",16.486692,80.699436,NO2,25,36,28
India,Assam,Byrnihat,"Central Academy for SFS, Byrnihat - PCBA","13-01-2026 14:00:00",26.071318,91.87488,PM2.5,96,305,153
India,Assam,Byrnihat,"Central Academy for SFS, Byrnihat - PCBA","13-01-2026 14:00:00",26.071318,91.87488,PM10,72,139,92
India,Assam,Byrnihat,"Central Academy for SFS, Byrnihat - PCBA","13-01-2026 14:00:00",26.071318,91.87488,NO2,5,8,7
India,Assam,Byrnihat,"Central Academy for SFS, Byrnihat - PCBA","13-01-2026 14:00:00",26.071318,91.87488,CO,34,61,50
India,Assam,Guwahati,"LGBI Airport, Guwahati - PCBA","13-01-2026 14:00:00",26.10887,91.589544,NO2,13,48,18
India,Assam,Guwahati,"LGBI Airport, Guwahati - PCBA","13-01-2026 14:00:00",26.10887,91.589544,NH3,5,8,5
India,Assam,Guwahati,"LGBI Airport, Guwahati - PCBA","13-01-2026 14:00:00",26.10887,91.589544,OZONE,10,15,14
India,Assam,Nagaon,"Christianpatty, Nagaon - PCBA","13-01-2026 14:00:00",26.349082,92.68449,NO2,1,2,1
India,Bihar,Aurangabad,"Gurdeo Nagar, Aurangabad - BSPCB","13-01-2026 14:00:00",24.75746,84.366208,NO2,7,8,8
India,Bihar,Aurangabad,"Gurdeo Nagar, Aurangabad - BSPCB","13-01-2026 14:00:00",24.75746,84.366208,NH3,1,2,2
India,Bihar,Begusarai,"Lohiyanagar, Begusarai - BSPCB","13-01-2026 14:00:00",25.42742023,86.13886079,SO2,27,32,29
India,Bihar,Bhagalpur,"DM Office_Kachari Chowk, Bhagalpur - BSPCB","13-01-2026 14:00:00",25.251013,86.989001,PM2.5,52,90,69
India,Bihar,Bhagalpur,"DM Office_Kachari Chowk, Bhagalpur - BSPCB","13-01-2026 14:00:00",25.251013,86.989001,NH3,1,1,1
India,Bihar,Bhagalpur,"DM Office_Kachari Chowk, Bhagalpur - BSPCB","13-01-2026 14:00:00",25.251013,86.989001,OZONE,8,28,15
India,Bihar,Bhagalpur,"Mayaganj, Bhagalpur - BSPCB","13-01-2026 14:00:00",25.265194,87.012947,PM10,80,126,105
India,Andhra_Pradesh,Kadapa,"Yerramukkapalli, Kadapa - APPCB","13-01-2026 14:00:00",14.465052,78.824187,PM10,35,173,107
India,Andhra_Pradesh,Kadapa,"Yerramukkapalli, Kadapa - APPCB","13-01-2026 14:00:00",14.465052,78.824187,CO,18,40,36
India,Andhra_Pradesh,Rajamahendravaram,"Anand Kala Kshetram, Rajamahendravaram - APPCB","13-01-2026 14:00:00",16.9872867,81.7363176,PM2.5,66,187,90
India,Andhra_Pradesh,Rajamahendravaram,"Anand Kala Kshetram, Rajamahendravaram - APPCB","13-01-2026 14:00:00",16.9872867,81.7363176,PM10,92,152,110
India,Andhra_Pradesh,Rajamahendravaram,"Anand Kala Kshetram, Rajamahendravaram - APPCB","13-01-2026 14:00:00",16.9872867,81.7363176,NH3,4,5,4
India,Andhra_Pradesh,Vijayawada,"Rajiv Gandhi Park, Vijayawada - APPCB","13-01-2026 14:00:00",16.509717,80.612222,PM2.5,89,133,101
India,Andhra_Pradesh,Vijayawada,"Rajiv Gandhi Park, Vijayawada - APPCB","13-01-2026 14:00:00",16.509717,80.612222,NH3,4,7,6
India,Andhra_Pradesh,Vijayawada,"Rajiv Nagar, Vijayawada - APPCB","13-01-2026 14:00:00",16.554731,80.649110,SO2,16,24,18
India,Arunachal_Pradesh,Naharlagun,"Naharlagun, Naharlagun - APSPCB","13-01-2026 14:00:00",27.103358,93.679645,PM2.5,NA,NA,NA
India,Bihar,Gaya,"SFTI Kusdihra, Gaya - BSPCB","13-01-2026 14:00:00",24.762518,84.982348,PM2.5,60,92,71
India,Bihar,Gaya,"SFTI Kusdihra, Gaya - BSPCB","13-01-2026 14:00:00",24.762518,84.982348,NH3,3,5,3
India,Bihar,Hajipur,"Industrial Area, Hajipur - BSPCB","13-01-2026 14:00:00",25.697189,85.245900,NH3,3,12,9
India,Bihar,Kishanganj,"SDM Office_Khagra, Kishanganj - BSPCB","13-01-2026 14:00:00",26.0881305,87.93840336,PM2.5,25,40,31
India,Bihar,"Bihar Sharif","D M Colony, Bihar Sharif - BSPCB","13-01-2026 14:00:00",25.204762,85.514960,PM2.5,48,237,117
India,Bihar,"Bihar Sharif","D M Colony, Bihar Sharif - BSPCB","13-01-2026 14:00:00",25.204762,85.514960,OZONE,1,12,7
India,Bihar,Chhapra,"Darshan Nagar, Chhapra - BSPCB","13-01-2026 14:00:00",25.7808257,84.7446768,PM2.5,40,143,77
India,Bihar,Chhapra,"Darshan Nagar, Chhapra - BSPCB","13-01-2026 14:00:00",25.7808257,84.7446768,PM10,53,139,94
India,Bihar,Araria,"Kharahiya Basti, Araria - BSPCB","13-01-2026 14:00:00",26.146529,87.454184,NO2,1,12,4
India,Bihar,Araria,"Kharahiya Basti, Araria - BSPCB","13-01-2026 14:00:00",26.146529,87.454184,SO2,1,21,11
India,Bihar,Arrah,"New DM Office, Arrah - BSPCB","13-01-2026 14:00:00",25.5626095,84.663264,PM2.5,30,75,51
India,Chandigarh,Chandigarh,"Sector 22, Chandigarh - CPCC","13-01-2026 14:00:00",30.735567,76.775714,CO,61,128,85
India,Chandigarh,Chandigarh,"Sector 22, Chandigarh - CPCC","13-01-2026 14:00:00",30.735567,76.775714,OZONE,4,55,23
India,Chandigarh,Chandigarh,"Sector-25, Chandigarh - CPCC","13-01-2026 14:00:00",30.751462,76.762879,PM2.5,170,317,273
India,Chandigarh,Chandigarh,"Sector-25, Chandigarh - CPCC","13-01-2026 14:00:00",30.751462,76.762879,PM10,102,174,145
India,Chandigarh,Chandigarh,"Sector-25, Chandigarh - CPCC","13-01-2026 14:00:00",30.751462,76.762879,OZONE,1,25,6
India,Chhattisgarh,Bhilai,"32Bungalows, Bhilai - CECB","13-01-2026 14:00:00",21.194815,81.314770,PM2.5,15,40,29
India,Chhattisgarh,Bhilai,"32Bungalows, Bhilai - CECB","13-01-2026 14:00:00",21.194815,81.314770,PM10,39,86,57
India,Chhattisgarh,Bhilai,"32Bungalows, Bhilai - CECB","13-01-2026 14:00:00",21.194815,81.314770,SO2,6,24,9
India,Chhattisgarh,Bhilai,"32Bungalows, Bhilai - CECB","13-01-2026 14:00:00",21.194815,81.314770,OZONE,2,47,18
India,Chhattisgarh,Bhilai,"Civic Center, Bhilai - Bhilai Steel Plant","13-01-2026 14:00:00",21.185571,81.343175,NO2,18,18,18
India,Chhattisgarh,Bhilai,"Civic Center, Bhilai - Bhilai Steel Plant","13-01-2026 14:00:00",21.185571,81.343175,NH3,3,3,3
India,Chhattisgarh,Bhilai,"Hathkhoj, Bhilai - CECB","13-01-2026 14:00:00",21.224231,81.408350,PM10,26,105,58
India,Chhattisgarh,Bilaspur,"Mangala, Bilaspur - NTPC","13-01-2026 14:00:00",22.08815,82.13737,PM2.5,26,98,62
India,Chhattisgarh,Tumidih,"OP Jindal Industrial Park, Tumidih - CECB","13-01-2026 14:00:00",22.06631475,83.33820077,NH3,1,2,2
India,Chhattisgarh,Tumidih,"OP Jindal Industrial Park, Tumidih - CECB","13-01-2026 14:00:00",22.06631475,83.33820077,OZONE,6,109,64
India,Delhi,Delhi,"Alipur, Delhi - DPCC","13-01-2026 14:00:00",28.815329,77.153010,PM10,94,465,281
India,Delhi,Delhi,"Alipur, Delhi - DPCC","13-01-2026 14:00:00",28.815329,77.153010,NO2,32,86,50
India,Delhi,Delhi,"Alipur, Delhi - DPCC","13-01-2026 14:00:00",28.815329,77.153010,SO2,4,8,6
India,Delhi,Delhi,"Alipur, Delhi - DPCC","13-01-2026 14:00:00",28.815329,77.153010,CO,26,98,75
India,Delhi,Delhi,"Anand Vihar, Delhi - DPCC","13-01-2026 14:00:00",28.647622,77.3158090,CO,20,137,108
India,Delhi,Delhi,"Ashok Vihar, Delhi - DPCC","13-01-2026 14:00:00",28.695381,77.181665,SO2,16,26,20
India,Delhi,Delhi,"Ashok Vihar, Delhi - DPCC","13-01-2026 14:00:00",28.695381,77.181665,OZONE,4,94,32
India,Delhi,Delhi,"Aya Nagar, Delhi - IMD","13-01-2026 14:00:00",28.4706914,77.1099364,CO,37,120,91
India,Bihar,Saharsa,"Police Line, Saharsa - BSPCB","13-01-2026 14:00:00",25.892357,86.590325,NO2,5,9,7
India,Bihar,Saharsa,"Police Line, Saharsa - BSPCB","13-01-2026 14:00:00",25.892357,86.590325,CO,39,45,41
India,Bihar,Samastipur,"DM Office_Kasipur, Samastipur - BSPCB","13-01-2026 14:00:00",25.859655,85.77944,PM2.5,60,371,150
India,Bihar,Samastipur,"DM Office_Kasipur, Samastipur - BSPCB","13-01-2026 14:00:00",25.859655,85.77944,PM10,61,305,118
India,Bihar,Sasaram,"Dada Peer, Sasaram - BSPCB","13-01-2026 14:00:00",24.952822,84.002396,PM10,53,112,76
India,Bihar,Sasaram,"Dada Peer, Sasaram - BSPCB","13-01-2026 14:00:00",24.952822,84.002396,NO2,2,3,2
India,Bihar,Sasaram,"Dada Peer, Sasaram - BSPCB","13-01-2026 14:00:00",24.952822,84.002396,OZONE,8,17,16
India,Chandigarh,Chandigarh,"Sector 22, Chandigarh - CPCC","13-01-2026 14:00:00",30.735567,76.775714,PM10,99,191,140
India,Delhi,Delhi,"Dwarka-Sector 8, Delhi - DPCC ","13-01-2026 14:00:00",28.5710274,77.0719006,PM2.5,123,500,417
India,Delhi,Delhi,"Dwarka-Sector 8, Delhi - DPCC ","13-01-2026 14:00:00",28.5710274,77.0719006,NH3,20,27,24
India,Delhi,Delhi,"IGI Airport (T3), Delhi - IMD","13-01-2026 14:00:00",28.5627763,77.1180053,CO,12,151,111
India,Delhi,Delhi,"IHBAS, Dilshad Garden, Delhi - CPCB","13-01-2026 14:00:00",28.6811736,77.3025234,NH3,8,19,14
India,Delhi,Delhi,"IHBAS, Dilshad Garden, Delhi - CPCB","13-01-2026 14:00:00",28.6811736,77.3025234,CO,36,100,61
India,Delhi,Delhi,"IIT Delhi, Delhi - IITM","13-01-2026 14:00:00",28.542460,77.191651,OZONE,7,55,23
India,Delhi,Delhi,"ITO, Delhi - CPCB","13-01-2026 14:00:00",28.628624,77.241060,PM2.5,96,500,367
India,Delhi,Delhi,"ITO, Delhi - CPCB","13-01-2026 14:00:00",28.628624,77.241060,PM10,106,444,303
India,Chhattisgarh,Raipur,"AIIMS, Raipur - CECB","13-01-2026 14:00:00",21.258815,81.578979,PM2.5,27,99,67
India,Chhattisgarh,Raipur,"AIIMS, Raipur - CECB","13-01-2026 14:00:00",21.258815,81.578979,OZONE,1,3,2
India,Chhattisgarh,Raipur,"Bhatagaon New ISBT, Raipur - CECB","13-01-2026 14:00:00",21.219665,81.630094,NH3,2,2,2
India,Chhattisgarh,Raipur,"Bhatagaon New ISBT, Raipur - CECB","13-01-2026 14:00:00",21.219665,81.630094,CO,32,115,54
India,Chhattisgarh,Raipur,"Krishak Nagar, Raipur - CECB","13-01-2026 14:00:00",21.237755,81.705301,PM10,28,72,58
India,Chhattisgarh,Raipur,"Krishak Nagar, Raipur - CECB","13-01-2026 14:00:00",21.237755,81.705301,CO,15,42,34
India,Chhattisgarh,Raipur,"Krishak Nagar, Raipur - CECB","13-01-2026 14:00:00",21.237755,81.705301,OZONE,10,29,10
India,Chhattisgarh,Raipur,"Siltara Phase-II, Raipur - CECB","13-01-2026 14:00:00",21.371751,81.664929,NO2,45,70,52
India,Delhi,Delhi,"Bawana, Delhi - DPCC","13-01-2026 14:00:00",28.776200,77.051074,PM2.5,237,500,390
India,Delhi,Delhi,"Bawana, Delhi - DPCC","13-01-2026 14:00:00",28.776200,77.051074,PM10,127,500,306
India,Delhi,Delhi,"Bawana, Delhi - DPCC","13-01-2026 14:00:00",28.776200,77.051074,NH3,8,11,9
India,Delhi,Delhi,"CRRI Mathura Road, Delhi - IMD","13-01-2026 14:00:00",28.5512005,77.2735737,NO2,28,69,46
India,Delhi,Delhi,"Chandni Chowk, Delhi - IITM","13-01-2026 14:00:00",28.656756,77.227234,PM2.5,163,480,364
India,Delhi,Delhi,"Chandni Chowk, Delhi - IITM","13-01-2026 14:00:00",28.656756,77.227234,OZONE,1,117,45
India,Delhi,Delhi,"DTU, Delhi - CPCB","13-01-2026 14:00:00",28.7500499,77.1112615,PM10,116,415,247
India,Chhattisgarh,Korba,"Rampur, Korba - CECB","13-01-2026 14:00:00",22.368195,82.746431,CO,17,37,28
India,Chhattisgarh,Korba,"Urja Nagar, Korba - CECB","13-01-2026 14:00:00",22.348441,82.549611,PM10,NA,NA,NA
India,Chhattisgarh,Kunjemura,"OP Jindal School, Kunjemura - CECB","13-01-2026 14:00:00",22.126650,83.483212,NO2,13,71,35
India,Chhattisgarh,Milupara,"Govt. Higher Secondary School, Milupara - CECB","13-01-2026 14:00:00",22.1910172,83.5197009,PM2.5,43,75,57
India,Bihar,Patna,"Rajbansi Nagar, Patna - BSPCB","13-01-2026 14:00:00",25.599486,85.113666,NO2,27,192,89
India,Bihar,Patna,"Samanpura, Patna - BSPCB","13-01-2026 14:00:00",25.596727,85.085624,PM2.5,63,232,139
India,Bihar,Rajgir,"Dangi Tola, Rajgir - BSPCB","13-01-2026 14:00:00",25.03280,85.41948,PM10,9,170,80
India,Bihar,Rajgir,"Dangi Tola, Rajgir - BSPCB","13-01-2026 14:00:00",25.03280,85.41948,OZONE,30,34,32
India,Delhi,Delhi,"Jawaharlal Nehru Stadium, Delhi - DPCC","13-01-2026 14:00:00",28.580280,77.233829,OZONE,1,159,158
India,Delhi,Delhi,"Major Dhyan Chand National Stadium, Delhi - DPCC","13-01-2026 14:00:00",28.611281,77.237738,NO2,3,129,59
India,Delhi,Delhi,"Major Dhyan Chand National Stadium, Delhi - DPCC","13-01-2026 14:00:00",28.611281,77.237738,CO,11,141,50
India,Delhi,Delhi,"Shadipur, Delhi - CPCB","13-01-2026 14:00:00",28.6514781,77.1473105,NO2,31,91,59
India,Delhi,Delhi,"Shadipur, Delhi - CPCB","13-01-2026 14:00:00",28.6514781,77.1473105,NH3,13,21,17
India,Delhi,Delhi,"Sirifort, Delhi - CPCB","13-01-2026 14:00:00",28.5504249,77.2159377,PM2.5,97,490,362
India,Delhi,Delhi,"Sirifort, Delhi - CPCB","13-01-2026 14:00:00",28.5504249,77.2159377,PM10,134,500,353
India,Delhi,Delhi,"Sirifort, Delhi - CPCB","13-01-2026 14:00:00",28.5504249,77.2159377,SO2,29,41,35
India,Delhi,Delhi,"Sirifort, Delhi - CPCB","13-01-2026 14:00:00",28.5504249,77.2159377,OZONE,15,22,17
India,Delhi,Delhi,"Sonia Vihar, Delhi - DPCC","13-01-2026 14:00:00",28.710508,77.249485,NH3,7,11,9
India,Delhi,Delhi,"Sonia Vihar, Delhi - DPCC","13-01-2026 14:00:00",28.710508,77.249485,OZONE,2,69,12
India,Delhi,Delhi,"Sri Aurobindo Marg, Delhi - DPCC","13-01-2026 14:00:00",28.531346,77.190156,PM10,105,374,217
India,Delhi,Delhi,"Sri Aurobindo Marg, Delhi - DPCC","13-01-2026 14:00:00",28.531346,77.190156,SO2,4,18,10
India,Delhi,Delhi,"Sri Aurobindo Marg, Delhi - DPCC","13-01-2026 14:00:00",28.531346,77.190156,CO,5,113,65
India,Delhi,Delhi,"Vivek Vihar, Delhi - DPCC","13-01-2026 14:00:00",28.672342,77.315260,PM2.5,163,500,390
India,Delhi,Delhi,"Vivek Vihar, Delhi - DPCC","13-01-2026 14:00:00",28.672342,77.315260,NO2,42,143,79
India,Delhi,Delhi,"Vivek Vihar, Delhi - DPCC","13-01-2026 14:00:00",28.672342,77.315260,SO2,7,42,15
India,Delhi,Delhi,"Wazirpur, Delhi - DPCC","13-01-2026 14:00:00",28.699793,77.165453,PM2.5,120,483,383
India,Delhi,Delhi,"Wazirpur, Delhi - DPCC","13-01-2026 14:00:00",28.699793,77.165453,NO2,121,193,147
India,Delhi,Delhi,"Wazirpur, Delhi - DPCC","13-01-2026 14:00:00",28.699793,77.165453,OZONE,20,47,29
India,Gujarat,Ahmedabad,"Chandkheda, Ahmedabad - IITM","13-01-2026 14:00:00",23.107969,72.574648,PM2.5,81,181,114
India,Gujarat,Ahmedabad,"Chandkheda, Ahmedabad - IITM","13-01-2026 14:00:00",23.107969,72.574648,PM10,79,196,131
India,Gujarat,Ahmedabad,"Chandkheda, Ahmedabad - IITM","13-01-2026 14:00:00",23.107969,72.574648,NH3,3,10,5
India,Gujarat,Ahmedabad,"Chandkheda, Ahmedabad - IITM","13-01-2026 14:00:00",23.107969,72.574648,CO,19,81,24
India,Gujarat,Ahmedabad,"Gyaspur, Ahmedabad - IITM","13-01-2026 14:00:00",22.977134,72.553024,NH3,3,23,10
India,Gujarat,Gandhinagar,"Sector-10, Gandhinagar - GPCB","13-01-2026 14:00:00",23.221714,72.654328,PM2.5,96,260,146
India,Gujarat,Gandhinagar,"Sector-10, Gandhinagar - GPCB","13-01-2026 14:00:00",23.221714,72.654328,NO2,23,60,30
India,Gujarat,Surat,"Science Center, Surat - SMC","13-01-2026 14:00:00",21.170046,72.795405,CO,35,44,41
India,Gujarat,Vapi,"Phase-1 GIDC, Vapi - GPCB","13-01-2026 14:00:00",20.362421,72.918013,PM2.5,NA,NA,NA
India,Gujarat,Vapi,"Phase-1 GIDC, Vapi - GPCB","13-01-2026 14:00:00",20.362421,72.918013,PM10,NA,NA,NA
India,Gujarat,Vapi,"Phase-1 GIDC, Vapi - GPCB","13-01-2026 14:00:00",20.362421,72.918013,NO2,NA,NA,NA
India,Gujarat,Vapi,"Phase-1 GIDC, Vapi - GPCB","13-01-2026 14:00:00",20.362421,72.918013,SO2,NA,NA,NA
India,Gujarat,Vatva,"Phase-4 GIDC, Vatva - GPCB","13-01-2026 14:00:00",22.969611,72.643500,NO2,34,83,67
India,Gujarat,Vatva,"Phase-4 GIDC, Vatva - GPCB","13-01-2026 14:00:00",22.969611,72.643500,NH3,3,11,8
India,Gujarat,Ahmedabad,"Maninagar, Ahmedabad - GPCB","13-01-2026 14:00:00",23.002657,72.591912,PM10,62,132,89
India,Gujarat,Ahmedabad,"Maninagar, Ahmedabad - GPCB","13-01-2026 14:00:00",23.002657,72.591912,OZONE,33,95,63
India,Gujarat,Ahmedabad,"Raikhad, Ahmedabad - IITM","13-01-2026 14:00:00",23.020509,72.579261,PM10,131,196,156
India,Gujarat,Ahmedabad,"Rakhial, Ahmedabad - IITM","13-01-2026 14:00:00",23.016834,72.625775,PM2.5,94,320,166
India,Gujarat,Ahmedabad,"SAC ISRO Bopal, Ahmedabad - IITM","13-01-2026 14:00:00",23.041137,72.456691,PM10,130,194,158
India,Gujarat,Ahmedabad,"SAC ISRO Bopal, Ahmedabad - IITM","13-01-2026 14:00:00",23.041137,72.456691,NH3,10,16,13
India,Gujarat,Ahmedabad,"SAC ISRO Satellite, Ahmedabad - IITM","13-01-2026 14:00:00",23.023389,72.515201,PM2.5,79,137,103
India,Gujarat,Ahmedabad,"SAC ISRO Satellite, Ahmedabad - IITM","13-01-2026 14:00:00",23.023389,72.515201,PM10,95,123,112
India,Delhi,Delhi,"Punjabi Bagh, Delhi - DPCC","13-01-2026 14:00:00",28.674045,77.131023,NO2,44,107,65
India,Delhi,Delhi,"Punjabi Bagh, Delhi - DPCC","13-01-2026 14:00:00",28.674045,77.131023,CO,16,138,32
India,Delhi,Delhi,"Pusa, Delhi - DPCC","13-01-2026 14:00:00",28.639652,77.146275,PM2.5,143,469,363
India,Delhi,Delhi,"Pusa, Delhi - IMD","13-01-2026 14:00:00",28.636110,77.173332,PM2.5,58,422,312
India,Delhi,Delhi,"Pusa, Delhi - IMD","13-01-2026 14:00:00",28.636110,77.173332,PM10,71,466,333
India,Delhi,Delhi,"R K Puram, Delhi - DPCC","13-01-2026 14:00:00",28.563262,77.186937,CO,18,180,92
India,Delhi,Delhi,"Rohini, Delhi - DPCC","13-01-2026 14:00:00",28.732528,77.119920,NH3,8,17,12
India,Delhi,Delhi,"Mundka, Delhi - DPCC","13-01-2026 14:00:00",28.684678,77.076574,PM2.5,93,500,383
India,Delhi,Delhi,"NSIT Dwarka, Delhi - CPCB","13-01-2026 14:00:00",28.60909,77.0325413,PM10,195,500,396
India,Delhi,Delhi,"NSIT Dwarka, Delhi - CPCB","13-01-2026 14:00:00",28.60909,77.0325413,CO,38,94,52
India,Delhi,Delhi,"Najafgarh, Delhi - DPCC","13-01-2026 14:00:00",28.570173,76.933762,CO,20,126,81
India,Delhi,Delhi,"Najafgarh, Delhi - DPCC","13-01-2026 14:00:00",28.570173,76.933762,OZONE,3,25,9
India,Delhi,Delhi,"Narela, Delhi - DPCC","13-01-2026 14:00:00",28.822836,77.101981,PM10,108,500,329
India,Delhi,Delhi,"Narela, Delhi - DPCC","13-01-2026 14:00:00",28.822836,77.101981,NH3,7,12,9
India,Delhi,Delhi,"Narela, Delhi - DPCC","13-01-2026 14:00:00",28.822836,77.101981,SO2,5,41,14
India,Delhi,Delhi,"North Campus, DU, Delhi - IMD","13-01-2026 14:00:00",28.6573814,77.1585447,NO2,31,230,105
India,Delhi,Delhi,"Okhla Phase-2, Delhi - DPCC","13-01-2026 14:00:00",28.530785,77.271255,PM2.5,NA,NA,NA
India,Delhi,Delhi,"Patparganj, Delhi - DPCC","13-01-2026 14:00:00",28.623763,77.287209,NO2,48,154,92
India,Gujarat,Ankleshwar,"GIDC, Ankleshwar - GPCB","13-01-2026 14:00:00",21.613267,73.010555,NO2,22,23,23
India,Gujarat,Ankleshwar,"GIDC, Ankleshwar - GPCB","13-01-2026 14:00:00",21.613267,73.010555,NH3,6,6,6
India,Gujarat,Ankleshwar,"GIDC, Ankleshwar - GPCB","13-01-2026 14:00:00",21.613267,73.010555,OZONE,4,103,45
India,Gujarat,Gandhinagar,"IIPHG Lekawada, Gandhinagar - IITM","13-01-2026 14:00:00",23.243639,72.68994,SO2,7,16,10
India,Gujarat,Gandhinagar,"IIPHG Lekawada, Gandhinagar - IITM","13-01-2026 14:00:00",23.243639,72.68994,OZONE,2,46,20
India,Haryana,Bahadurgarh,"Arya Nagar, Bahadurgarh - HSPCB","13-01-2026 14:00:00",28.6701,76.9254,NH3,12,13,13
India,Haryana,Bahadurgarh,"Arya Nagar, Bahadurgarh - HSPCB","13-01-2026 14:00:00",28.6701,76.9254,CO,45,50,48
India,Haryana,Bahadurgarh,"Arya Nagar, Bahadurgarh - HSPCB","13-01-2026 14:00:00",28.6701,76.9254,OZONE,16,19,18
India,Haryana,Bhiwani,"H.B. Colony, Bhiwani - HSPCB","13-01-2026 14:00:00",28.806223,76.141105,NH3,1,9,8
India,Haryana,Bhiwani,"H.B. Colony, Bhiwani - HSPCB","13-01-2026 14:00:00",28.806223,76.141105,CO,10,14,12
India,Haryana,Sonipat,"Murthal, Sonipat - HSPCB","13-01-2026 14:00:00",29.027200,77.062100,SO2,6,10,8
India,Haryana,Sonipat,"Murthal, Sonipat - HSPCB","13-01-2026 14:00:00",29.027200,77.062100,CO,29,64,59
India,Haryana,Sonipat,"Murthal, Sonipat - HSPCB","13-01-2026 14:00:00",29.027200,77.062100,OZONE,25,26,26
India,Haryana,"Yamuna Nagar","Gobind Pura, Yamuna Nagar - HSPCB","13-01-2026 14:00:00",30.1480566,77.2893471,PM10,20,456,212
India,Haryana,"Yamuna Nagar","Gobind Pura, Yamuna Nagar - HSPCB","13-01-2026 14:00:00",30.1480566,77.2893471,NO2,11,21,16
India,"Himachal Pradesh",Baddi,"HIMUDA Complex Phase-1, Baddi - HPPCB","13-01-2026 14:00:00",30.943887,76.801991,SO2,26,108,59
India,"Himachal Pradesh",Baddi,"HIMUDA Complex Phase-1, Baddi - HPPCB","13-01-2026 14:00:00",30.943887,76.801991,OZONE,6,87,37
India,Jammu_and_Kashmir,Srinagar,"Rajbagh, Srinagar - JKPCC","13-01-2026 14:00:00",34.066206,74.819820,OZONE,NA,NA,NA
India,Jharkhand,Dhanbad,"Sardar Patel Nagar, Dhanbad - JSPCB","13-01-2026 14:00:00",23.80569,86.44268,NO2,49,50,50
India,Karnataka,Bengaluru,"Kasturi Nagar, Bengaluru - KSPCB","13-01-2026 14:00:00",13.003872,77.664217,PM10,58,79,67
India,Karnataka,Bengaluru,"Kasturi Nagar, Bengaluru - KSPCB","13-01-2026 14:00:00",13.003872,77.664217,NO2,27,44,29
India,Karnataka,Bengaluru,"Kasturi Nagar, Bengaluru - KSPCB","13-01-2026 14:00:00",13.003872,77.664217,NH3,4,5,4
India,Karnataka,Bengaluru,"Kasturi Nagar, Bengaluru - KSPCB","13-01-2026 14:00:00",13.003872,77.664217,CO,38,48,46
India,Karnataka,Bengaluru,"Peenya, Bengaluru - CPCB","13-01-2026 14:00:00",13.0270199,77.494094,PM2.5,18,41,28
India,Karnataka,Bengaluru,"Peenya, Bengaluru - CPCB","13-01-2026 14:00:00",13.0270199,77.494094,NH3,3,4,4
India,Karnataka,Bengaluru,"Peenya, Bengaluru - CPCB","13-01-2026 14:00:00",13.0270199,77.494094,CO,23,56,39
India,Karnataka,Bengaluru,"RVCE-Mailasandra, Bengaluru - KSPCB","13-01-2026 14:00:00",12.921418,77.502466,PM10,NA,NA,NA
India,Karnataka,Bengaluru,"RVCE-Mailasandra, Bengaluru - KSPCB","13-01-2026 14:00:00",12.921418,77.502466,NO2,NA,NA,NA
India,Karnataka,Bengaluru,"Sanegurava Halli, Bengaluru - KSPCB","13-01-2026 14:00:00",12.990328,77.5431385,NO2,15,18,17
India,Karnataka,Bengaluru,"Silk Board, Bengaluru - KSPCB","13-01-2026 14:00:00",12.917348,77.622813,PM10,84,168,109
India,Haryana,Kurukshetra,"Sector-7, Kurukshetra - HSPCB","13-01-2026 14:00:00",29.966942,76.875879,NH3,5,5,5
India,Haryana,Mandikhera,"General Hospital, Mandikhera(Nuh) - HSPCB","13-01-2026 14:00:00",27.9002,76.9938,NO2,20,23,22
India,Haryana,Mandikhera,"General Hospital, Mandikhera(Nuh) - HSPCB","13-01-2026 14:00:00",27.9002,76.9938,NH3,13,14,13
India,Haryana,Mandikhera,"General Hospital, Mandikhera(Nuh) - HSPCB","13-01-2026 14:00:00",27.9002,76.9938,SO2,30,37,34
India,Haryana,Mandikhera,"General Hospital, Mandikhera(Nuh) - HSPCB","13-01-2026 14:00:00",27.9002,76.9938,CO,54,90,76
India,Haryana,Manesar,"Sector-2 IMT, Manesar - HSPCB","13-01-2026 14:00:00",28.360699,76.936090,PM10,88,500,301
India,Haryana,Narnaul,"Shastri Nagar, Narnaul - HSPCB","13-01-2026 14:00:00",28.060249,76.113115,CO,11,37,32
India,Haryana,Palwal,"Shyam Nagar, Palwal - HSPCB","13-01-2026 14:00:00",28.1485564,77.3320667,NO2,NA,NA,NA
India,Haryana,Palwal,"Shyam Nagar, Palwal - HSPCB","13-01-2026 14:00:00",28.1485564,77.3320667,SO2,NA,NA,NA
India,Karnataka,Bagalkot,"Vidayagiri, Bagalkot - KSPCB","13-01-2026 14:00:00",16.172806,75.659694,PM2.5,22,36,34
India,Karnataka,Bagalkot,"Vidayagiri, Bagalkot - KSPCB","13-01-2026 14:00:00",16.172806,75.659694,PM10,18,54,51
India,Karnataka,Belgaum,"Ramteerth Nagar, Belgaum - KSPCB","13-01-2026 14:00:00",15.888653,74.541751,NH3,8,11,10
India,Karnataka,Belgaum,"Ramteerth Nagar, Belgaum - KSPCB","13-01-2026 14:00:00",15.888653,74.541751,SO2,24,25,25
India,Karnataka,Belgaum,"Ramteerth Nagar, Belgaum - KSPCB","13-01-2026 14:00:00",15.888653,74.541751,OZONE,19,20,19
India,Karnataka,Bengaluru,"BTM Layout, Bengaluru - CPCB","13-01-2026 14:00:00",12.9135218,77.5950804,PM2.5,NA,NA,NA
India,Karnataka,Bengaluru,"BTM Layout, Bengaluru - CPCB","13-01-2026 14:00:00",12.9135218,77.5950804,CO,NA,NA,NA
India,Karnataka,Bengaluru,"BWSSB Kadabesanahalli, Bengaluru - CPCB","13-01-2026 14:00:00",12.9352049,77.6814488,PM2.5,64,317,104
India,Karnataka,Bengaluru,"BWSSB Kadabesanahalli, Bengaluru - CPCB","13-01-2026 14:00:00",12.9352049,77.6814488,OZONE,18,58,32
India,Karnataka,Bengaluru,"City Railway Station, Bengaluru - KSPCB","13-01-2026 14:00:00",12.9756843,77.5660749,PM10,90,92,91
India,Karnataka,Bengaluru,"Hebbal, Bengaluru - KSPCB","13-01-2026 14:00:00",13.029152,77.585901,PM10,60,103,76
India,Karnataka,Bengaluru,"Hebbal, Bengaluru - KSPCB","13-01-2026 14:00:00",13.029152,77.585901,NO2,NA,NA,NA
India,Karnataka,Bengaluru,"Hebbal, Bengaluru - KSPCB","13-01-2026 14:00:00",13.029152,77.585901,CO,4,62,28
India,Karnataka,Bengaluru,"Hombegowda Nagar, Bengaluru - KSPCB","13-01-2026 14:00:00",12.938539,77.590100,CO,10,24,17
India,Karnataka,Bengaluru,"Hombegowda Nagar, Bengaluru - KSPCB","13-01-2026 14:00:00",12.938539,77.590100,OZONE,21,44,40
India,Karnataka,Bengaluru,"Jayanagar 5th Block, Bengaluru - KSPCB","13-01-2026 14:00:00",12.920984,77.584908,PM2.5,36,70,56
India,Karnataka,Bengaluru,"Jigani, Bengaluru - KSPCB","13-01-2026 14:00:00",12.7816279,77.6299145,SO2,22,22,22
India,Haryana,Panchgaon,"Amity University, Panchgaon - IITM","13-01-2026 14:00:00",28.3153,76.9143,NO2,5,139,51
India,Haryana,Panchgaon,"Amity University, Panchgaon - IITM","13-01-2026 14:00:00",28.3153,76.9143,NH3,7,35,14
India,Haryana,Panchgaon,"Amity University, Panchgaon - IITM","13-01-2026 14:00:00",28.3153,76.9143,SO2,7,23,12
India,Haryana,Panchgaon,"Amity University, Panchgaon - IITM","13-01-2026 14:00:00",28.3153,76.9143,OZONE,1,97,40
India,Haryana,Rohtak,"MD University, Rohtak - HSPCB","13-01-2026 14:00:00",28.52123,76.37138,SO2,10,14,12
India,Haryana,Sirsa,"F-Block, Sirsa - HSPCB","13-01-2026 14:00:00",29.536400,75.015800,PM10,76,110,94
India,Haryana,Dharuhera,"Municipal Corporation Office, Dharuhera -  HSPCB","13-01-2026 14:00:00",28.206800,76.799700,PM10,115,464,348
India,Haryana,Dharuhera,"Municipal Corporation Office, Dharuhera -  HSPCB","13-01-2026 14:00:00",28.206800,76.799700,SO2,1,3,1
India,Haryana,Faridabad,"New Industrial Town, Faridabad - HSPCB","13-01-2026 14:00:00",28.39072,77.30059,PM10,171,177,174
India,Haryana,Faridabad,"Sector 11, Faridabad - HSPCB","13-01-2026 14:00:00",28.376058,77.315741,NH3,10,10,10
India,Haryana,Faridabad,"Sector 11, Faridabad - HSPCB","13-01-2026 14:00:00",28.376058,77.315741,CO,10,111,47
India,Haryana,Hisar,"Urban Estate-II, Hisar - HSPCB","13-01-2026 14:00:00",29.140560,75.744941,SO2,6,15,11
India,Haryana,Jind,"Police Lines, Jind - HSPCB","13-01-2026 14:00:00",29.307814,76.337619,PM2.5,103,234,166
India,Haryana,Jind,"Police Lines, Jind - HSPCB","13-01-2026 14:00:00",29.307814,76.337619,PM10,87,129,109
India,Haryana,Karnal,"Sector-12, Karnal - HSPCB","13-01-2026 14:00:00",29.695300,77.002700,PM2.5,128,328,233
India,Haryana,Gurugram,"Teri Gram, Gurugram - HSPCB","13-01-2026 14:00:00",28.4275,77.1465,PM2.5,82,430,295
India,Haryana,Gurugram,"Teri Gram, Gurugram - HSPCB","13-01-2026 14:00:00",28.4275,77.1465,CO,24,107,104
India,Haryana,Gurugram,"Vikas Sadan, Gurugram - HSPCB","13-01-2026 14:00:00",28.4501238,77.0263051,NO2,7,36,21
India,"Madhya Pradesh",Mandideep,"Sector-D Industrial Area, Mandideep - MPPCB","13-01-2026 14:00:00",23.108440,77.511428,OZONE,3,24,8
India,"Madhya Pradesh",Pithampur,"Sector-2 Industrial Area, Pithampur - MPPCB","13-01-2026 14:00:00",22.624758,75.675238,OZONE,64,218,218
India,"Madhya Pradesh",Ratlam,"Shasthri Nagar, Ratlam - IPCA Lab","13-01-2026 14:00:00",23.331731,75.045981,PM10,108,167,131
India,"Madhya Pradesh",Satna,"Bandhavgar Colony, Satna - Birla Cement","13-01-2026 14:00:00",24.58434363,80.8549414,PM10,69,71,70
India,"Madhya Pradesh",Singrauli,"Suryakiran Bhawan NCL, Singrauli - MPPCB","13-01-2026 14:00:00",24.108970,82.645580,PM10,103,260,162
India,Karnataka,Hubballi,"Lingaraj Nagar, Hubballi - KSPCB","13-01-2026 14:00:00",15.3714823,75.1160168,PM10,56,66,59
India,Karnataka,Kalaburagi,"Mahatma Basaveswar Colony, Kalaburgi - KSPCB","13-01-2026 14:00:00",17.336318,76.847397,OZONE,14,20,16
India,Karnataka,Koppal,"Diwator Nagar, Koppal - KSPCB","13-01-2026 14:00:00",15.347630,76.181767,NO2,29,35,30
India,Karnataka,Madikeri,"Stuart Hill, Madikeri - KSPCB","13-01-2026 14:00:00",12.415911,75.735050,SO2,7,7,7
India,Karnataka,Mysuru,"Hebbal 1st Stage, Mysuru - KSPCB","13-01-2026 14:00:00",12.21041,76.37376,CO,10,30,22
India,"Madhya Pradesh",Jabalpur,"Suhagi, Jabalpur - JMC","13-01-2026 14:00:00",23.218135,79.957770,PM10,73,299,161
India,"Madhya Pradesh",Katni,"Gole Bazar, Katni - MPPCB","13-01-2026 14:00:00",23.50016,80.23284,PM10,51,226,118
India,"Madhya Pradesh",Maihar,"Sahilara, Maihar - KJS Cements","13-01-2026 14:00:00",24.2613009,80.7231783,PM2.5,NA,NA,NA
India,"Madhya Pradesh",Maihar,"Sahilara, Maihar - KJS Cements","13-01-2026 14:00:00",24.2613009,80.7231783,SO2,NA,NA,NA
India,"Madhya Pradesh",Mandideep,"Sector-D Industrial Area, Mandideep - MPPCB","13-01-2026 14:00:00",23.108440,77.511428,PM10,108,371,194
India,Karnataka,Chamarajanagar,"Urban, Chamarajanagar - KSPCB","13-01-2026 14:00:00",11.55358,76.55521,PM10,28,58,43
India,Karnataka,Chamarajanagar,"Urban, Chamarajanagar - KSPCB","13-01-2026 14:00:00",11.55358,76.55521,NO2,14,36,20
India,Karnataka,Chamarajanagar,"Urban, Chamarajanagar - KSPCB","13-01-2026 14:00:00",11.55358,76.55521,NH3,1,3,2
India,Karnataka,Chikkamagaluru,"Kalyana Nagara, Chikkamagaluru - KSPCB","13-01-2026 14:00:00",13.328028,75.797056,NO2,15,29,21
India,Karnataka,Chikkamagaluru,"Kalyana Nagara, Chikkamagaluru - KSPCB","13-01-2026 14:00:00",13.328028,75.797056,CO,6,11,11
India,Karnataka,Chikkamagaluru,"Kalyana Nagara, Chikkamagaluru - KSPCB","13-01-2026 14:00:00",13.328028,75.797056,OZONE,11,47,21
India,Karnataka,Shivamogga,"Vinoba Nagara, Shivamogga - KSPCB","13-01-2026 14:00:00",13.940000,75.555917,PM10,31,61,47
India,Karnataka,Shivamogga,"Vinoba Nagara, Shivamogga - KSPCB","13-01-2026 14:00:00",13.940000,75.555917,SO2,1,6,4
India,Karnataka,Tumakuru,"Thimmalapura, Tumakuru - KSPCB","13-01-2026 14:00:00",13.377516,77.099072,NO2,NA,NA,NA
India,Karnataka,Tumakuru,"Thimmalapura, Tumakuru - KSPCB","13-01-2026 14:00:00",13.377516,77.099072,NH3,NA,NA,NA
India,Karnataka,Yadgir,"Collector Office, Yadgir - KSPCB","13-01-2026 14:00:00",16.7602,77.1428,PM10,44,95,65
India,"Madhya Pradesh",Gwalior,"City Center, Gwalior - MPPCB","13-01-2026 14:00:00",26.203442,78.193251,CO,15,121,60
India,"Madhya Pradesh",Gwalior,"Deen Dayal Nagar, Gwalior - MPPCB","13-01-2026 14:00:00",26.259242,78.216432,NH3,5,8,7
India,"Madhya Pradesh",Gwalior,"Maharaj Bada, Gwalior - MPPCB","13-01-2026 14:00:00",26.200388,78.147714,PM2.5,85,388,208
India,"Madhya Pradesh",Indore,"Airport Area, Indore - IMC","13-01-2026 14:00:00",22.7289,75.8076,NO2,1,3,2
India,Kerala,Eloor,"Udyogamandal, Eloor - Kerala PCB","13-01-2026 14:00:00",10.073232,76.302765,PM2.5,46,64,54
India,Kerala,Eloor,"Udyogamandal, Eloor - Kerala PCB","13-01-2026 14:00:00",10.073232,76.302765,PM10,43,54,48
India,Kerala,Eloor,"Udyogamandal, Eloor - Kerala PCB","13-01-2026 14:00:00",10.073232,76.302765,NO2,7,8,7
India,Kerala,Kollam,"Polayathode, Kollam - Kerala PCB","13-01-2026 14:00:00",8.8787,76.6073,PM2.5,20,76,45
India,"Madhya Pradesh",Bhopal,"Idgah Hills, Bhopal - MPPCB","13-01-2026 14:00:00",23.264759,77.381568,PM2.5,57,263,137
India,"Madhya Pradesh",Bhopal,"Idgah Hills, Bhopal - MPPCB","13-01-2026 14:00:00",23.264759,77.381568,OZONE,35,88,58
India,"Madhya Pradesh",Bhopal,"Paryavaran Parisar, Bhopal - MPPCB","13-01-2026 14:00:00",23.210494,77.425409,PM2.5,63,378,197
India,"Madhya Pradesh",Bhopal,"Paryavaran Parisar, Bhopal - MPPCB","13-01-2026 14:00:00",23.210494,77.425409,PM10,97,418,208
India,"Madhya Pradesh",Indore,"Regional Park, Indore - IMC","13-01-2026 14:00:00",22.6780,75.8559,OZONE,27,95,60
India,"Madhya Pradesh",Indore,"Residency Area, Indore - IMC","13-01-2026 14:00:00",22.7084,75.8815,PM10,49,118,78
India,"Madhya Pradesh",Jabalpur,"Gupteshwar, Jabalpur - JMC","13-01-2026 14:00:00",23.142888,79.916147,NO2,19,116,46
India,Maharashtra,Amravati,"Shri Shivaji Science College, Amravati - MPCB","13-01-2026 14:00:00",20.939198,77.765701,PM2.5,NA,NA,NA
India,Maharashtra,Amravati,"Shri Shivaji Science College, Amravati - MPCB","13-01-2026 14:00:00",20.939198,77.765701,NH3,1,9,3
India,Maharashtra,Aurangabad,"More Chowk Waluj, Aurangabad - MPCB","13-01-2026 14:00:00",19.8389439,75.244448,PM10,74,128,89
India,Maharashtra,Aurangabad,"More Chowk Waluj, Aurangabad - MPCB","13-01-2026 14:00:00",19.8389439,75.244448,NH3,10,11,11
India,Maharashtra,Aurangabad,"More Chowk Waluj, Aurangabad - MPCB","13-01-2026 14:00:00",19.8389439,75.244448,OZONE,22,98,65
India,Maharashtra,Badlapur,"Katrap, Badlapur - MPCB","13-01-2026 14:00:00",19.16485,73.23409,NO2,14,30,21
India,Maharashtra,Badlapur,"Katrap, Badlapur - MPCB","13-01-2026 14:00:00",19.16485,73.23409,NH3,3,8,5
India,Maharashtra,Badlapur,"Katrap, Badlapur - MPCB","13-01-2026 14:00:00",19.16485,73.23409,SO2,5,15,10
India,Maharashtra,Badlapur,"Katrap, Badlapur - MPCB","13-01-2026 14:00:00",19.16485,73.23409,CO,14,64,33
India,Maharashtra,Badlapur,"Katrap, Badlapur - MPCB","13-01-2026 14:00:00",19.16485,73.23409,OZONE,12,90,45
India,Maharashtra,Kalyan,"Pimpleshwar Mandir, Kalyan - MPCB","13-01-2026 14:00:00",19.192056,72.9585188,NO2,5,23,10
India,Maharashtra,Kolhapur,"Shivaji University, Kolhapur - MPCB","13-01-2026 14:00:00",16.6870449,74.2505872,PM10,50,94,76
India,Maharashtra,Kolhapur,"Shivaji University, Kolhapur - MPCB","13-01-2026 14:00:00",16.6870449,74.2505872,SO2,NA,NA,NA
India,Maharashtra,Kolhapur,"Sinchan Bhavan, Kolhapur - MPCB","13-01-2026 14:00:00",16.7143745,74.2426398,PM2.5,32,58,41
India,Maharashtra,Kolhapur,"Sinchan Bhavan, Kolhapur - MPCB","13-01-2026 14:00:00",16.7143745,74.2426398,OZONE,3,34,20
India,Maharashtra,Latur,"Sawe Wadi, Latur - MPCB","13-01-2026 14:00:00",18.39963,76.57452,PM10,66,108,81
India,Maharashtra,Latur,"Sawe Wadi, Latur - MPCB","13-01-2026 14:00:00",18.39963,76.57452,NH3,5,25,11
India,Maharashtra,Mahad,"Kamble Tarf Birwadi, Mahad - MPCB","13-01-2026 14:00:00",18.1023399,73.4783687,PM2.5,49,88,64
India,"Madhya Pradesh",Singrauli,"Suryakiran Bhawan NCL, Singrauli - MPPCB","13-01-2026 14:00:00",24.108970,82.645580,SO2,9,27,12
India,"Madhya Pradesh",Singrauli,"Suryakiran Bhawan NCL, Singrauli - MPPCB","13-01-2026 14:00:00",24.108970,82.645580,CO,24,125,44
India,"Madhya Pradesh",Ujjain,"Mahashweta Nagar, Ujjain - MPPCB","13-01-2026 14:00:00",23.1633321,75.800225,PM10,81,208,117
India,Maharashtra,Ahmednagar,"Tarakpur, Ahmednagar - MPCB","13-01-2026 14:00:00",19.10122,74.73339,PM10,76,126,98
India,Maharashtra,Akola,"Ramdaspeth, Akola - MPCB","13-01-2026 14:00:00",20.719516,77.000253,PM2.5,44,73,59
India,Maharashtra,Amravati,"Shivneri Colony, Amravati - MPCB","13-01-2026 14:00:00",20.9402359,77.7895248,PM2.5,50,71,58
India,Maharashtra,Malegaon,"Mahesh Nagar, Malegaon - MPCB","13-01-2026 14:00:00",20.555712,74.529236,PM10,89,172,113
India,Maharashtra,Mira-Bhayandar,"Bhayandar West, Mira-Bhayandar - MPCB","13-01-2026 14:00:00",19.296481,72.840923,NO2,27,94,60
India,Maharashtra,Mira-Bhayandar,"Bhayandar West, Mira-Bhayandar - MPCB","13-01-2026 14:00:00",19.296481,72.840923,OZONE,1,64,18
India,Maharashtra,Mumbai,"Bandra Kurla Complex, Mumbai - IITM","13-01-2026 14:00:00",19.053536,72.84643,PM2.5,77,193,134
India,Maharashtra,Mumbai,"Bandra Kurla Complex, Mumbai - IITM","13-01-2026 14:00:00",19.053536,72.84643,PM10,92,170,134
India,Maharashtra,Mumbai,"Bandra Kurla Complex, Mumbai - IITM","13-01-2026 14:00:00",19.053536,72.84643,NH3,1,29,14
India,Maharashtra,Mumbai,"Bandra Kurla Complex, Mumbai - MPCB","13-01-2026 14:00:00",19.065931,72.862131,SO2,5,15,7
India,Maharashtra,Belapur,"CBD Belapur, Belapur - MPCB","13-01-2026 14:00:00",19.0243902,73.0406721,NO2,19,41,30
India,Maharashtra,Bhiwandi,"Gokul Nagar, Bhiwandi - MPCB","13-01-2026 14:00:00",19.309073,73.057223,PM10,96,187,139
India,Maharashtra,Bhiwandi,"Gokul Nagar, Bhiwandi - MPCB","13-01-2026 14:00:00",19.309073,73.057223,SO2,3,17,10
India,Maharashtra,Bhiwandi,"Gokul Nagar, Bhiwandi - MPCB","13-01-2026 14:00:00",19.309073,73.057223,OZONE,12,96,47
India,Maharashtra,Chandrapur,"Chauhan Colony, Chandrapur - MPCB","13-01-2026 14:00:00",19.962900,79.298714,PM10,86,229,129
India,Maharashtra,Chandrapur,"MIDC Khutala, Chandrapur - MPCB","13-01-2026 14:00:00",19.9775302,79.2337086,PM2.5,50,132,72
India,Maharashtra,Mumbai,"Chhatrapati Shivaji Intl. Airport (T2), Mumbai - MPCB","13-01-2026 14:00:00",19.10078,72.87462,SO2,20,21,21
India,Maharashtra,Mumbai,"Colaba, Mumbai - MPCB","13-01-2026 14:00:00",18.910000,72.820000,PM2.5,34,79,52
India,Maharashtra,Mumbai,"Ghatkopar, Mumbai - BMC","13-01-2026 14:00:00",19.083694,72.920967,SO2,2,7,3
India,Maharashtra,Mumbai,"Kandivali East, Mumbai - MPCB","13-01-2026 14:00:00",19.205800,72.868200,PM2.5,3,17,11
India,Maharashtra,Mumbai,"Kandivali East, Mumbai - MPCB","13-01-2026 14:00:00",19.205800,72.868200,PM10,67,143,100
India,Maharashtra,Mumbai,"Kandivali East, Mumbai - MPCB","13-01-2026 14:00:00",19.205800,72.868200,NO2,30,30,30
India,Maharashtra,Dhule,"Deopur, Dhule - MPCB","13-01-2026 14:00:00",20.918946,74.776388,NH3,1,2,1
India,Maharashtra,Dhule,"Deopur, Dhule - MPCB","13-01-2026 14:00:00",20.918946,74.776388,SO2,9,23,18
India,Maharashtra,Dhule,"Deopur, Dhule - MPCB","13-01-2026 14:00:00",20.918946,74.776388,CO,14,48,36
India,Maharashtra,Jalgaon,"Prabhat Colony, Jalgaon - MPCB","13-01-2026 14:00:00",21.001264,75.565602,PM2.5,57,152,90
India,Maharashtra,Jalgaon,"Prabhat Colony, Jalgaon - MPCB","13-01-2026 14:00:00",21.001264,75.565602,SO2,10,47,24
India,Maharashtra,Jalgaon,"Prabhat Colony, Jalgaon - MPCB","13-01-2026 14:00:00",21.001264,75.565602,CO,20,33,24
India,Maharashtra,Mumbai,"Borivali East, Mumbai - IITM","13-01-2026 14:00:00",19.23241,72.86895,CO,10,72,45
India,Maharashtra,Mumbai,"Borivali East, Mumbai - MPCB","13-01-2026 14:00:00",19.2243333,72.8658113,PM10,51,77,63
India,Maharashtra,Mumbai,"Byculla, Mumbai - BMC","13-01-2026 14:00:00",18.9767,72.8380,PM2.5,57,157,94
India,Maharashtra,Kalyan,"Khadakpada, Kalyan - MPCB","13-01-2026 14:00:00",19.25292,73.142019,OZONE,9,23,11
India,Maharashtra,"Navi Mumbai","Mahape, Navi Mumbai - MPCB","13-01-2026 14:00:00",19.1135051,73.008978,PM2.5,43,106,74
India,Maharashtra,"Navi Mumbai","Mahape, Navi Mumbai - MPCB","13-01-2026 14:00:00",19.1135051,73.008978,PM10,73,161,117
India,Maharashtra,"Navi Mumbai","Mahape, Navi Mumbai - MPCB","13-01-2026 14:00:00",19.1135051,73.008978,NO2,34,36,35
India,Maharashtra,"Navi Mumbai","Mahape, Navi Mumbai - MPCB","13-01-2026 14:00:00",19.1135051,73.008978,NH3,3,3,3
India,Maharashtra,"Navi Mumbai","Mahape, Navi Mumbai - MPCB","13-01-2026 14:00:00",19.1135051,73.008978,SO2,20,22,22
India,Maharashtra,"Navi Mumbai","Mahape, Navi Mumbai - MPCB","13-01-2026 14:00:00",19.1135051,73.008978,CO,18,20,18
India,Maharashtra,"Navi Mumbai","Mahape, Navi Mumbai - MPCB","13-01-2026 14:00:00",19.1135051,73.008978,OZONE,7,13,11
India,Maharashtra,"Navi Mumbai","Nerul, Navi Mumbai - MPCB","13-01-2026 14:00:00",19.008751,73.016620,NH3,4,5,5
India,Maharashtra,"Navi Mumbai","Nerul, Navi Mumbai - MPCB","13-01-2026 14:00:00",19.008751,73.016620,SO2,NA,NA,NA
India,Maharashtra,"Navi Mumbai","Sanpada, Navi Mumbai - MPCB","13-01-2026 14:00:00",19.0575752,73.0151367,PM2.5,48,158,97
India,Maharashtra,"Navi Mumbai","Sanpada, Navi Mumbai - MPCB","13-01-2026 14:00:00",19.0575752,73.0151367,OZONE,1,77,28
India,Maharashtra,"Navi Mumbai","Sector-2E Kalamboli, Navi Mumbai - MPCB","13-01-2026 14:00:00",19.02579,73.10297,PM2.5,29,99,68
India,Maharashtra,"Navi Mumbai","Sector-2E Kalamboli, Navi Mumbai - MPCB","13-01-2026 14:00:00",19.02579,73.10297,NH3,4,20,12
India,Maharashtra,"Navi Mumbai","Sector-2E Kalamboli, Navi Mumbai - MPCB","13-01-2026 14:00:00",19.02579,73.10297,SO2,1,27,11
India,Maharashtra,Mumbai,"Mindspace-Malad West, Mumbai - MPCB","13-01-2026 14:00:00",19.1878657,72.8304069,SO2,9,44,23
India,Maharashtra,Mumbai,"Mindspace-Malad West, Mumbai - MPCB","13-01-2026 14:00:00",19.1878657,72.8304069,CO,22,88,58
India,Maharashtra,Mumbai,"Mindspace-Malad West, Mumbai - MPCB","13-01-2026 14:00:00",19.1878657,72.8304069,OZONE,1,88,21
India,Maharashtra,Mumbai,"Mulund West, Mumbai - MPCB","13-01-2026 14:00:00",19.1750,72.9419,PM2.5,54,201,98
India,Maharashtra,Mumbai,"Mulund West, Mumbai - MPCB","13-01-2026 14:00:00",19.1750,72.9419,NH3,4,5,5
India,Maharashtra,Mumbai,"Mulund West, Mumbai - MPCB","13-01-2026 14:00:00",19.1750,72.9419,SO2,NA,NA,NA
India,Maharashtra,Mumbai,"Mulund West, Mumbai - MPCB","13-01-2026 14:00:00",19.1750,72.9419,CO,10,10,10
India,Maharashtra,Mumbai,"Navy Nagar-Colaba, Mumbai - IITM","13-01-2026 14:00:00",18.897756,72.813320,NO2,40,190,118
India,Maharashtra,Mumbai,"Navy Nagar-Colaba, Mumbai - IITM","13-01-2026 14:00:00",18.897756,72.813320,SO2,24,87,46
India,Maharashtra,Mumbai,"Navy Nagar-Colaba, Mumbai - IITM","13-01-2026 14:00:00",18.897756,72.813320,CO,36,74,60
India,Maharashtra,Mumbai,"Powai, Mumbai - MPCB","13-01-2026 14:00:00",19.137500,72.915056,PM2.5,19,37,27
India,Maharashtra,Mumbai,"Powai, Mumbai - MPCB","13-01-2026 14:00:00",19.137500,72.915056,PM10,34,66,48
India,Maharashtra,Mumbai,"Kandivali West, Mumbai - BMC","13-01-2026 14:00:00",19.215859,72.831718,NO2,15,76,40
India,Maharashtra,Mumbai,"Kandivali West, Mumbai - BMC","13-01-2026 14:00:00",19.215859,72.831718,NH3,1,2,1
India,Maharashtra,Mumbai,"Kherwadi_Bandra East, Mumbai - MPCB","13-01-2026 14:00:00",19.0632143,72.8456324,SO2,3,4,3
India,Maharashtra,Mumbai,"Kherwadi_Bandra East, Mumbai - MPCB","13-01-2026 14:00:00",19.0632143,72.8456324,CO,11,44,35
India,Maharashtra,Mumbai,"Khindipada-Bhandup West, Mumbai - IITM","13-01-2026 14:00:00",19.1653323,72.922099,PM10,53,133,96
India,Maharashtra,Mumbai,"Kurla, Mumbai - MPCB","13-01-2026 14:00:00",19.0863,72.8888,PM10,94,124,113
India,Maharashtra,Mumbai,"Kurla, Mumbai - MPCB","13-01-2026 14:00:00",19.0863,72.8888,SO2,36,37,36
India,Maharashtra,Mumbai,"Malad West, Mumbai - IITM","13-01-2026 14:00:00",19.19709,72.82204,NH3,10,34,17
India,Maharashtra,Mumbai,"Malad West, Mumbai - IITM","13-01-2026 14:00:00",19.19709,72.82204,SO2,1,19,7
India,Maharashtra,Mumbai,"Sewri, Mumbai - BMC","13-01-2026 14:00:00",19.000084,72.856730,SO2,2,14,7
India,Maharashtra,Mumbai,"Shivaji Nagar, Mumbai - BMC","13-01-2026 14:00:00",19.060498,72.923356,NO2,56,100,72
India,Maharashtra,Mumbai,"Sion, Mumbai - MPCB","13-01-2026 14:00:00",19.047000,72.874600,PM2.5,38,106,73
India,Maharashtra,Mumbai,"Vile Parle West, Mumbai - MPCB","13-01-2026 14:00:00",19.10861,72.83622,PM2.5,51,93,70
India,Maharashtra,Mumbai,"Vile Parle West, Mumbai - MPCB","13-01-2026 14:00:00",19.10861,72.83622,NO2,11,11,11
India,Maharashtra,Nagpur,"Ambazari, Nagpur - MPCB","13-01-2026 14:00:00",21.121801,79.04952,PM10,88,138,111
India,Maharashtra,Pimpri-Chinchwad,"Thergaon, Pimpri Chinchwad - MPCB","13-01-2026 14:00:00",18.616318,73.765797,PM2.5,35,177,131
India,Maharashtra,Pimpri-Chinchwad,"Thergaon, Pimpri Chinchwad - MPCB","13-01-2026 14:00:00",18.616318,73.765797,NO2,39,108,69
India,Maharashtra,Pune,"Bhumkar Nagar, Pune - IITM","13-01-2026 14:00:00",18.605770,73.749976,PM10,119,236,171
India,Maharashtra,Pune,"Hadapsar, Pune - IITM","13-01-2026 14:00:00",18.501793,73.927532,PM10,114,248,177
India,Maharashtra,Pune,"Hadapsar, Pune - IITM","13-01-2026 14:00:00",18.501793,73.927532,CO,14,133,83
India,Maharashtra,Pune,"Mhada Colony, Pune - IITM","13-01-2026 14:00:00",18.573040,73.927715,OZONE,19,120,70
India,Maharashtra,Nagpur,"Ambazari, Nagpur - MPCB","13-01-2026 14:00:00",21.121801,79.04952,NH3,3,14,5
India,Maharashtra,Nagpur,"Ram Nagar, Nagpur - MPCB","13-01-2026 14:00:00",21.143383,79.048912,PM10,103,189,133
India,Maharashtra,Nanded,"Sneh Nagar, Nanded - MPCB","13-01-2026 14:00:00",19.173852,77.296291,PM2.5,60,92,74
India,Maharashtra,Nanded,"Sneh Nagar, Nanded - MPCB","13-01-2026 14:00:00",19.173852,77.296291,NH3,3,5,4
India,Maharashtra,Nanded,"Sneh Nagar, Nanded - MPCB","13-01-2026 14:00:00",19.173852,77.296291,SO2,8,10,9
India,Maharashtra,"Navi Mumbai","Tondare-Taloja, Navi Mumbai - MPCB","13-01-2026 14:00:00",19.0630,73.1209,NO2,17,82,36
India,Maharashtra,"Navi Mumbai","Tondare-Taloja, Navi Mumbai - MPCB","13-01-2026 14:00:00",19.0630,73.1209,OZONE,11,53,20
India,Maharashtra,Pimpri-Chinchwad,"Park Street Wakad, Pimpri Chinchwad - MPCB","13-01-2026 14:00:00",18.59051,73.77946,OZONE,7,99,70
India,Maharashtra,Pune,"Revenue Colony-Shivajinagar, Pune - IITM","13-01-2026 14:00:00",18.530085,73.849598,SO2,3,35,12
India,Maharashtra,Pune,"Revenue Colony-Shivajinagar, Pune - IITM","13-01-2026 14:00:00",18.530085,73.849598,OZONE,5,94,40
India,Maharashtra,Nashik,"MIDC Ambad, Nashik - MPCB","13-01-2026 14:00:00",19.950220,73.731480,NH3,2,3,3
India,Maharashtra,Virar,"Bolinj, Virar - MPCB","13-01-2026 14:00:00",19.4458210,72.7988231,NO2,17,107,46
India,Maharashtra,Virar,"Bolinj, Virar - MPCB","13-01-2026 14:00:00",19.4458210,72.7988231,CO,16,118,61
India,Meghalaya,Shillong,"Lumpyngngad, Shillong - Meghalaya PCB","13-01-2026 14:00:00",25.5586,91.8985,SO2,6,11,8
India,Mizoram,Aizawl,"Sikulpuikawn, Aizawl - Mizoram PCB","13-01-2026 14:00:00",23.7176342,92.7192841,SO2,15,15,15
India,Mizoram,Aizawl,"Sikulpuikawn, Aizawl - Mizoram PCB","13-01-2026 14:00:00",23.7176342,92.7192841,OZONE,1,11,4
India,Nagaland,Kohima,"PWD Junction, Kohima - NPCB","13-01-2026 14:00:00",25.6635413,94.0989878,PM2.5,14,89,38
India,Nagaland,Kohima,"PWD Junction, Kohima - NPCB","13-01-2026 14:00:00",25.6635413,94.0989878,NO2,3,5,3
India,Nagaland,Kohima,"PWD Junction, Kohima - NPCB","13-01-2026 14:00:00",25.6635413,94.0989878,SO2,75,77,76
India,Nagaland,Kohima,"PWD Junction, Kohima - NPCB","13-01-2026 14:00:00",25.6635413,94.0989878,OZONE,1,11,4
India,Odisha,Angul,"Hakimapada, Angul - OSPCB","13-01-2026 14:00:00",20.832874,85.104082,NO2,20,45,33
India,Odisha,Angul,"Hakimapada, Angul - OSPCB","13-01-2026 14:00:00",20.832874,85.104082,OZONE,29,183,183
India,Odisha,Rourkela,"Sector-2, Rourkela - OSPCB","13-01-2026 14:00:00",22.24500000,84.88111111,CO,34,44,40
India,Odisha,Suakati,"OMC Colony, Suakati - OSPCB","13-01-2026 14:00:00",21.606865,85.510538,PM2.5,140,300,211
India,Odisha,Suakati,"OMC Colony, Suakati - OSPCB","13-01-2026 14:00:00",21.606865,85.510538,PM10,102,142,122
India,Odisha,Suakati,"OMC Colony, Suakati - OSPCB","13-01-2026 14:00:00",21.606865,85.510538,NO2,13,13,13
India,Odisha,Talcher,"Talcher Coalfields,Talcher - OSPCB","13-01-2026 14:00:00",20.9360711,85.1707021,PM10,62,436,211
India,Puducherry,Puducherry,"Jawahar Nagar, Puducherry - PPCC","13-01-2026 14:00:00",11.9309,79.8027,PM10,50,80,65
India,Puducherry,Puducherry,"Jawahar Nagar, Puducherry - PPCC","13-01-2026 14:00:00",11.9309,79.8027,NH3,2,4,3
India,Puducherry,Puducherry,"Jawahar Nagar, Puducherry - PPCC","13-01-2026 14:00:00",11.9309,79.8027,SO2,5,12,8
India,Punjab,Amritsar,"Golden Temple, Amritsar - PPCB","13-01-2026 14:00:00",31.620000,74.876512,SO2,19,27,22
India,Punjab,Amritsar,"Golden Temple, Amritsar - PPCB","13-01-2026 14:00:00",31.620000,74.876512,CO,37,54,40
India,Punjab,Amritsar,"Golden Temple, Amritsar - PPCB","13-01-2026 14:00:00",31.620000,74.876512,OZONE,33,43,39
India,Punjab,Bathinda,"Hardev Nagar, Bathinda - PPCB","13-01-2026 14:00:00",30.233011,74.907758,SO2,3,9,7
India,Punjab,Jalandhar,"Civil Line, Jalandhar - PPCB","13-01-2026 14:00:00",31.321907,75.578914,NH3,2,4,4
India,Punjab,Khanna,"Kalal Majra, Khanna - PPCB","13-01-2026 14:00:00","30.736056 ",76.209694,PM2.5,33,140,92
India,Punjab,Ludhiana,"Punjab Agricultural University, Ludhiana - PPCB","13-01-2026 14:00:00",30.9028,75.8086,SO2,9,38,18
India,Punjab,Ludhiana,"Punjab Agricultural University, Ludhiana - PPCB","13-01-2026 14:00:00",30.9028,75.8086,OZONE,12,29,18
India,Punjab,"Mandi Gobindgarh","RIMT University, Mandi Gobindgarh - PPCB","13-01-2026 14:00:00",30.649961,76.331442,PM2.5,12,302,107
India,Punjab,"Mandi Gobindgarh","RIMT University, Mandi Gobindgarh - PPCB","13-01-2026 14:00:00",30.649961,76.331442,PM10,16,211,101
India,Punjab,"Mandi Gobindgarh","RIMT University, Mandi Gobindgarh - PPCB","13-01-2026 14:00:00",30.649961,76.331442,NO2,23,25,24
India,Odisha,Nayagarh,"Dabuna, Nayagarh - OSPCB","13-01-2026 14:00:00",21.847279,85.416905,PM2.5,28,63,45
India,Odisha,Nayagarh,"Dabuna, Nayagarh - OSPCB","13-01-2026 14:00:00",21.847279,85.416905,PM10,51,125,86
India,Odisha,Rairangpur,"Divisional Forest Office, Rairangpur - OSPCB","13-01-2026 14:00:00",22.265816,86.174829,CO,19,72,30
India,Odisha,Rourkela,"Fertilizer Township, Rourkela - OSPCB","13-01-2026 14:00:00",22.18972222,84.86277778,PM2.5,100,153,120
India,Odisha,Rourkela,"Raghunathpali, Rourkela - OSPCB","13-01-2026 14:00:00",22.220833,84.809444,NH3,NA,NA,NA
India,Odisha,Rourkela,"Sector-2, Rourkela - OSPCB","13-01-2026 14:00:00",22.24500000,84.88111111,PM2.5,87,285,108
India,Punjab,Patiala,"Model Town, Patiala - PPCB","13-01-2026 14:00:00",30.349388,76.366642,NO2,14,40,20
India,Punjab,Rupnagar,"Ratanpura, Rupnagar - Ambuja Cements","13-01-2026 14:00:00",31.0325454,76.5623046,PM10,NA,NA,NA
India,Punjab,Rupnagar,"Ratanpura, Rupnagar - Ambuja Cements","13-01-2026 14:00:00",31.0325454,76.5623046,CO,71,86,73
India,Rajasthan,Ajmer,"Civil Lines,  Ajmer - RSPCB","13-01-2026 14:00:00",26.470859,74.646594,SO2,8,17,12
India,Rajasthan,Alwar,"Moti Doongri, Alwar - RSPCB","13-01-2026 14:00:00",27.554793,76.611536,SO2,6,44,27
India,Odisha,Bileipada,"Tata Township, Bileipada - OSPCB","13-01-2026 14:00:00",22.06156703,85.47409613,PM2.5,100,326,220
India,Odisha,Bileipada,"Tata Township, Bileipada - OSPCB","13-01-2026 14:00:00",22.06156703,85.47409613,OZONE,22,23,23
India,Odisha,Byasanagar,"Ferro Chrome Colony, Byasanagar - OSPCB","13-01-2026 14:00:00",20.94185,86.11510,PM2.5,63,328,148
India,Odisha,Byasanagar,"Ferro Chrome Colony, Byasanagar - OSPCB","13-01-2026 14:00:00",20.94185,86.11510,OZONE,42,185,185
India,Odisha,Cuttack,"CDA Area, Cuttack - OSPCB","13-01-2026 14:00:00","20.48891     ","85.84768     ",OZONE,12,220,220
India,Odisha,Balasore,"Kalidaspur, Balasore - OSPCB","13-01-2026 14:00:00",21.51161,86.89088,PM10,109,315,146
India,Odisha,Balasore,"Kalidaspur, Balasore - OSPCB","13-01-2026 14:00:00",21.51161,86.89088,NH3,1,1,1
India,Odisha,Barbil,"Forest Office, Barbil - OSPCB","13-01-2026 14:00:00",22.1166054,85.3945546,SO2,9,43,16
India,Odisha,Barbil,"Forest Office, Barbil - OSPCB","13-01-2026 14:00:00",22.1166054,85.3945546,OZONE,2,91,49
India,Odisha,Bhubaneswar,"Patia, Bhubaneswar - OSPCB","13-01-2026 14:00:00",20.34652,85.81630,PM2.5,65,312,142
India,Maharashtra,Pune,"Savitribai Phule Pune University, Pune - MPCB","13-01-2026 14:00:00",18.547056,73.826908,OZONE,1,140,85
India,Maharashtra,Sangli,"Vijay Nagar, Sangli - MPCB","13-01-2026 14:00:00"," 16.5038",74.3623,OZONE,18,62,42
India,Maharashtra,Solapur,"Dnyaneshwar Nagar, Solapur - MPCB","13-01-2026 14:00:00",17.6336264,75.9132495,NH3,6,23,11
India,Maharashtra,Solapur,"Dnyaneshwar Nagar, Solapur - MPCB","13-01-2026 14:00:00",17.6336264,75.9132495,SO2,1,6,2
India,Maharashtra,Solapur,"Ratandeep Housing Society, Solapur - MPCB","13-01-2026 14:00:00",17.65439,75.90649,NO2,14,91,37
India,Maharashtra,Solapur,"Ratandeep Housing Society, Solapur - MPCB","13-01-2026 14:00:00",17.65439,75.90649,NH3,3,8,4
India,Maharashtra,Thane,"Upvan Fort, Thane - MPCB","13-01-2026 14:00:00",19.222279,72.957979,NH3,3,3,3
India,Maharashtra,Thane,"Upvan Fort, Thane - MPCB","13-01-2026 14:00:00",19.222279,72.957979,SO2,11,35,21
India,Maharashtra,Thane,"Upvan Fort, Thane - MPCB","13-01-2026 14:00:00",19.222279,72.957979,CO,12,46,38
India,Rajasthan,Banswara,"Rati Talai, Banswara - RSPCB","13-01-2026 14:00:00",23.555190,74.440010,SO2,5,16,9
India,Rajasthan,Banswara,"Rati Talai, Banswara - RSPCB","13-01-2026 14:00:00",23.555190,74.440010,CO,12,52,25
India,Rajasthan,Baran,"Bamboliya, Baran - RSPCB","13-01-2026 14:00:00",25.106006,76.469948,PM10,114,163,136
India,Rajasthan,Baran,"Bamboliya, Baran - RSPCB","13-01-2026 14:00:00",25.106006,76.469948,NO2,18,49,27
India,Rajasthan,Baran,"Bamboliya, Baran - RSPCB","13-01-2026 14:00:00",25.106006,76.469948,CO,22,52,32
India,Rajasthan,Bharatpur,"Krishna Nagar, Bharatpur - RSPCB","13-01-2026 14:00:00",27.215415,77.50873,PM10,57,349,148
India,Rajasthan,Bharatpur,"Krishna Nagar, Bharatpur - RSPCB","13-01-2026 14:00:00",27.215415,77.50873,OZONE,6,152,152
India,Rajasthan,Bhilwara,"Pratap Nagar, Bhilwara - RSPCB","13-01-2026 14:00:00",25.339605,74.618883,PM2.5,90,315,215
India,Rajasthan,Bhilwara,"Pratap Nagar, Bhilwara - RSPCB","13-01-2026 14:00:00",25.339605,74.618883,NH3,3,9,5
India,Rajasthan,Jodhpur,"Digari Kalan, Jodhpur - RSPCB","13-01-2026 14:00:00",26.295810,73.082283,CO,1,65,16
India,Rajasthan,Jodhpur,"Jhalamand, Jodhpur - RSPCB","13-01-2026 14:00:00",26.215415,73.070156,NH3,7,22,14
India,Rajasthan,Jodhpur,"Jhalamand, Jodhpur - RSPCB","13-01-2026 14:00:00",26.215415,73.070156,OZONE,3,139,56
India,Rajasthan,Jodhpur,"Mandor, Jodhpur - RSPCB","13-01-2026 14:00:00",26.358805,73.047444,PM10,66,163,110
India,Rajasthan,Jodhpur,"Mandor, Jodhpur - RSPCB","13-01-2026 14:00:00",26.358805,73.047444,NO2,17,112,46
India,Rajasthan,Jodhpur,"Mandor, Jodhpur - RSPCB","13-01-2026 14:00:00",26.358805,73.047444,SO2,3,19,8
India,Rajasthan,Jodhpur,"Samrat Ashok Udhyan, Jodhpur - RSPCB","13-01-2026 14:00:00",26.253384,72.976571,NH3,3,5,4
India,Rajasthan,Karauli,"Satyawati Vihar, Karauli - RSPCB","13-01-2026 14:00:00",26.506177,77.025989,NH3,10,15,12
India,Rajasthan,Karauli,"Satyawati Vihar, Karauli - RSPCB","13-01-2026 14:00:00",26.506177,77.025989,SO2,7,13,10
India,Rajasthan,Dungarpur,"Bhoiwada, Dungarpur - RSPCB","13-01-2026 14:00:00",23.837789,73.714926,NH3,4,7,5
India,Rajasthan,Dungarpur,"Bhoiwada, Dungarpur - RSPCB","13-01-2026 14:00:00",23.837789,73.714926,CO,14,96,24
India,Rajasthan,Hanumangarh,"Housing Board, Hanumangarh - RSPCB","13-01-2026 14:00:00",29.610750,74.283608,NH3,1,6,2
India,Rajasthan,Jaipur,"Adarsh Nagar, Jaipur - RSPCB","13-01-2026 14:00:00",26.902909,75.836858,PM2.5,87,176,123
India,Rajasthan,Jaipur,"Adarsh Nagar, Jaipur - RSPCB","13-01-2026 14:00:00",26.902909,75.836858,CO,33,58,39
India,Rajasthan,Jaipur,"Mansarovar Sector-12, Jaipur - RSPCB","13-01-2026 14:00:00",26.843698,75.766894,SO2,7,15,9
India,Rajasthan,Jaipur,"Police Commissionerate, Jaipur - RSPCB","13-01-2026 14:00:00",26.9164092,75.7994901,NO2,123,156,144
India,Rajasthan,Chittorgarh,"Shastri Nagar, Chittorgarh - RSPCB","13-01-2026 14:00:00",24.892047,74.623527,PM2.5,70,334,208
India,Rajasthan,Chittorgarh,"Shastri Nagar, Chittorgarh - RSPCB","13-01-2026 14:00:00",24.892047,74.623527,NO2,23,118,65
India,Rajasthan,Chittorgarh,"Shastri Nagar, Chittorgarh - RSPCB","13-01-2026 14:00:00",24.892047,74.623527,SO2,3,132,28
India,Rajasthan,Churu,"Subash Chowk, Churu - RSPCB","13-01-2026 14:00:00",28.296139,74.961696,SO2,5,10,7
India,Rajasthan,Churu,"Subash Chowk, Churu - RSPCB","13-01-2026 14:00:00",28.296139,74.961696,CO,24,64,50
India,Rajasthan,Dausa,"Khatikan Mohalla, Dausa - RSPCB","13-01-2026 14:00:00",26.895552,76.334753,CO,34,102,76
India,Rajasthan,Dholpur,"Raja Ganj, Dholpur - RSPCB","13-01-2026 14:00:00",26.699557,77.898881,NO2,19,86,44
India,Rajasthan,Dholpur,"Raja Ganj, Dholpur - RSPCB","13-01-2026 14:00:00",26.699557,77.898881,SO2,6,24,12
India,Rajasthan,Jalore,"Mudtra Sili, Jalore - RSPCB","13-01-2026 14:00:00",25.344694,72.626208,NO2,24,157,66
India,Rajasthan,Jalore,"Mudtra Sili, Jalore - RSPCB","13-01-2026 14:00:00",25.344694,72.626208,SO2,3,13,7
India,Rajasthan,Jhalawar,"Rajlaxmi Nagar, Jhalawar - RSPCB","13-01-2026 14:00:00",24.588397,76.172782,NO2,40,62,52
India,Rajasthan,Jhunjhunu,"Indra Nagar, Jhunjhunu - RSPCB","13-01-2026 14:00:00",28.108988,75.386577,PM10,92,320,174
India,Rajasthan,Jhunjhunu,"Indra Nagar, Jhunjhunu - RSPCB","13-01-2026 14:00:00",28.108988,75.386577,CO,24,57,48
India,Rajasthan,Jodhpur,"Collectorate, Jodhpur - RSPCB","13-01-2026 14:00:00",26.268249,73.0193853,NO2,7,34,22
India,Rajasthan,Jodhpur,"Collectorate, Jodhpur - RSPCB","13-01-2026 14:00:00",26.268249,73.0193853,NH3,6,56,23
India,Rajasthan,Jaipur,"Police Commissionerate, Jaipur - RSPCB","13-01-2026 14:00:00",26.9164092,75.7994901,OZONE,16,79,49
India,Rajasthan,Jaipur,"RIICO Sitapura, Jaipur - RSPCB","13-01-2026 14:00:00",26.786682,75.827928,PM10,NA,NA,NA
India,Rajasthan,Jaipur,"RIICO Sitapura, Jaipur - RSPCB","13-01-2026 14:00:00",26.786682,75.827928,NO2,NA,NA,NA
India,Rajasthan,Jaipur,"RIICO Sitapura, Jaipur - RSPCB","13-01-2026 14:00:00",26.786682,75.827928,SO2,NA,NA,NA
India,Rajasthan,Jaipur,"Sector-2 Murlipura, Jaipur - RSPCB","13-01-2026 14:00:00",26.960669,75.771817,NO2,15,139,68
India,Rajasthan,Jaipur,"Shastri Nagar, Jaipur - RSPCB","13-01-2026 14:00:00",26.9502929,75.730943,PM2.5,NA,NA,NA
India,Rajasthan,Jaipur,"Shastri Nagar, Jaipur - RSPCB","13-01-2026 14:00:00",26.9502929,75.730943,CO,NA,NA,NA
India,Rajasthan,Bhiwadi,"RIICO Ind. Area III, Bhiwadi - RSPCB","13-01-2026 14:00:00",28.194909,76.862296,OZONE,4,36,18
India,Rajasthan,Bhiwadi,"Vasundhara Nagar_UIT, Bhiwadi - RSPCB","13-01-2026 14:00:00",28.207266,76.829265,NO2,29,188,81
India,Rajasthan,Bhiwadi,"Vasundhara Nagar_UIT, Bhiwadi - RSPCB","13-01-2026 14:00:00",28.207266,76.829265,NH3,1,7,3
India,Rajasthan,Bhiwadi,"Vasundhara Nagar_UIT, Bhiwadi - RSPCB","13-01-2026 14:00:00",28.207266,76.829265,CO,37,125,93
India,Rajasthan,Bikaner,"MM Ground, Bikaner - RSPCB","13-01-2026 14:00:00",28.018792,73.292658,CO,20,106,58
India,Rajasthan,Pali,"Indira Colony Vistar, Pali - RSPCB","13-01-2026 14:00:00",25.771061," 73.340227",PM2.5,81,304,203
India,Rajasthan,Pali,"Indira Colony Vistar, Pali - RSPCB","13-01-2026 14:00:00",25.771061," 73.340227",CO,24,97,42
India,Rajasthan,Rajsamand,"Dhoinda, Rajsamand - RSPCB","13-01-2026 14:00:00",25.036360,73.883502,PM10,61,195,108
India,Rajasthan,Rajsamand,"Dhoinda, Rajsamand - RSPCB","13-01-2026 14:00:00",25.036360,73.883502,CO,9,101,30
India,Rajasthan,Rajsamand,"Dhoinda, Rajsamand - RSPCB","13-01-2026 14:00:00",25.036360,73.883502,OZONE,7,156,66
India,Rajasthan,Kota,"Dhanmandi, Kota - RSPCB","13-01-2026 14:00:00",25.164090,75.858137,PM10,119,356,205
India,Rajasthan,Kota,"Nayapura, Kota - RSPCB","13-01-2026 14:00:00",25.196024,75.855668,NO2,21,91,47
India,Rajasthan,Kota,"Nayapura, Kota - RSPCB","13-01-2026 14:00:00",25.196024,75.855668,SO2,4,10,7
India,Rajasthan,Kota,"Shrinath Puram, Kota - RSPCB","13-01-2026 14:00:00",25.14389,75.821256,NH3,4,9,6
India,TamilNadu,Coimbatore,"PSG College of Arts and Science, Coimbatore - TNPCB","13-01-2026 14:00:00",11.0328,77.0349,OZONE,4,6,5
India,TamilNadu,Coimbatore,"SIDCO Kurichi, Coimbatore - TNPCB","13-01-2026 14:00:00",10.942451,76.978996,NO2,1,8,4
India,TamilNadu,Cuddalore,"Kudikadu, Cuddalore - TNPCB","13-01-2026 14:00:00",11.6829898,79.7532099,NH3,1,1,1
India,TamilNadu,Cuddalore,"Semmandalam, Cuddalore - TNPCB","13-01-2026 14:00:00",11.7637683,79.7499835,PM2.5,62,245,98
India,TamilNadu,Cuddalore,"Semmandalam, Cuddalore - TNPCB","13-01-2026 14:00:00",11.7637683,79.7499835,NO2,4,22,12
India,TamilNadu,Cuddalore,"Semmandalam, Cuddalore - TNPCB","13-01-2026 14:00:00",11.7637683,79.7499835,NH3,1,3,2
India,TamilNadu,Dindigul,"Mendonsa Colony, Dindigul - TNPCB","13-01-2026 14:00:00",10.358535,77.984321,NO2,NA,NA,NA
India,TamilNadu,Gummidipoondi,"Anthoni Pillai Nagar, Gummidipoondi - TNPCB","13-01-2026 14:00:00",13.4127,80.1081,PM10,71,308,140
India,TamilNadu,Karur,"Kamadenu Nagar, Karur - TNPCB","13-01-2026 14:00:00",10.967820,78.080882,PM2.5,16,78,49
India,TamilNadu,Ramanathapuram,"Chalai Bazaar, Ramanathapuram - TNPCB","13-01-2026 14:00:00",9.36399,78.831977,OZONE,5,6,5
India,TamilNadu,Thanjavur,"Parisutham Nagar, Thanjavur - TNPCB","13-01-2026 14:00:00",10.7654824,79.1389968,PM10,28,55,40
India,TamilNadu,Thanjavur,"Parisutham Nagar, Thanjavur - TNPCB","13-01-2026 14:00:00",10.7654824,79.1389968,NH3,1,1,1
India,TamilNadu,Tirupur,"Kumaran College, Tirupur - TNPCB","13-01-2026 14:00:00",11.0973603,77.3228673,PM10,65,155,95
India,TamilNadu,Tirupur,"Kumaran College, Tirupur - TNPCB","13-01-2026 14:00:00",11.0973603,77.3228673,NO2,11,18,13
India,TamilNadu,Tirupur,"Kumaran College, Tirupur - TNPCB","13-01-2026 14:00:00",11.0973603,77.3228673,SO2,2,115,11
India,Telangana,Hyderabad,"Bollaram Industrial Area, Hyderabad - TSPCB","13-01-2026 14:00:00",17.540891,78.358528,CO,7,42,26
India,Sikkim,Gangtok,"Zero Point GICI, Gangtok - SSPCB","13-01-2026 14:00:00",27.338530,88.614099,PM2.5,8,47,25
India,Sikkim,Gangtok,"Zero Point GICI, Gangtok - SSPCB","13-01-2026 14:00:00",27.338530,88.614099,PM10,NA,NA,NA
India,Sikkim,Gangtok,"Zero Point GICI, Gangtok - SSPCB","13-01-2026 14:00:00",27.338530,88.614099,SO2,1,1,1
India,TamilNadu,Chennai,"Arumbakkam, Chennai - TNPCB","13-01-2026 14:00:00",13.0664,"80.2112 ",NO2,8,18,11
India,TamilNadu,Chennai,"Arumbakkam, Chennai - TNPCB","13-01-2026 14:00:00",13.0664,"80.2112 ",SO2,2,7,3
India,TamilNadu,Chennai,"Gandhi Nagar_Ennore, Chennai - TNPCB","13-01-2026 14:00:00",13.218341,80.32027,SO2,22,22,22
India,TamilNadu,Chennai,"Gandhi Nagar_Ennore, Chennai - TNPCB","13-01-2026 14:00:00",13.218341,80.32027,CO,6,21,13
India,TamilNadu,Chennai,"Manali Village, Chennai - TNPCB","13-01-2026 14:00:00",13.1662,80.2584,NH3,1,2,2
India,Rajasthan,Sirohi,"Vedhaynath Colony, Sirohi - RSPCB","13-01-2026 14:00:00",24.885261,72.857549,PM10,63,222,115
India,Rajasthan,Sirohi,"Vedhaynath Colony, Sirohi - RSPCB","13-01-2026 14:00:00",24.885261,72.857549,NO2,16,155,68
India,Rajasthan,"Sri Ganganagar","Old City, Sri Ganganagar - RSPCB","13-01-2026 14:00:00",29.931624,73.864511,OZONE,1,131,29
India,Rajasthan,Tonk,"Shastri Nagar, Tonk - RSPCB","13-01-2026 14:00:00",26.159933,75.780517,PM2.5,147,356,243
India,Rajasthan,Udaipur,"Ashok Nagar, Udaipur - RSPCB","13-01-2026 14:00:00",24.5886166,73.6321397,PM2.5,NA,NA,NA
India,Rajasthan,Udaipur,"Ashok Nagar, Udaipur - RSPCB","13-01-2026 14:00:00",24.5886166,73.6321397,PM10,97,201,142
India,TamilNadu,Karur,"Kamadenu Nagar, Karur - TNPCB","13-01-2026 14:00:00",10.967820,78.080882,SO2,13,16,15
India,TamilNadu,Karur,"Kamadenu Nagar, Karur - TNPCB","13-01-2026 14:00:00",10.967820,78.080882,OZONE,6,10,8
India,TamilNadu,Madurai,"Uchapatti, Madurai - TNPCB","13-01-2026 14:00:00",9.865935,78.022669,PM10,NA,NA,NA
India,TamilNadu,Perundurai,"SIPCOT Industrial Park, Perundurai - TNPCB","13-01-2026 14:00:00",11.258242,77.552761,NH3,2,5,3
India,TamilNadu,Pudukottai,"SIPCOT Nathampannai, Pudukottai - TNPCB","13-01-2026 14:00:00",10.423417,78.784889,PM2.5,55,82,67
India,TamilNadu,Chennai,"Manali Village, Chennai - TNPCB","13-01-2026 14:00:00",13.1662,80.2584,CO,42,64,51
India,TamilNadu,Chennai,"Manali Village, Chennai - TNPCB","13-01-2026 14:00:00",13.1662,80.2584,OZONE,15,45,20
India,TamilNadu,Chennai,"Perungudi, Chennai - TNPCB","13-01-2026 14:00:00",12.9533,80.2357,OZONE,5,35,9
India,TamilNadu,Chennai,"Royapuram, Chennai - TNPCB","13-01-2026 14:00:00",13.1036,80.2909,SO2,4,7,6
India,TamilNadu,Chennai,"Royapuram, Chennai - TNPCB","13-01-2026 14:00:00",13.1036,80.2909,CO,46,60,51
India,TamilNadu,Chennai,"Velachery Res. Area, Chennai - CPCB","13-01-2026 14:00:00",13.0052189,80.2398125,PM2.5,29,98,37
India,Telangana,Hyderabad,"ICRISAT Patancheru, Hyderabad - TSPCB","13-01-2026 14:00:00",17.518400,78.278777,NO2,6,105,42
India,Telangana,Hyderabad,"ICRISAT Patancheru, Hyderabad - TSPCB","13-01-2026 14:00:00",17.518400,78.278777,OZONE,27,71,48
India,Telangana,Hyderabad,"IDA Pashamylaram, Hyderabad - TSPCB","13-01-2026 14:00:00",17.5316895,78.218939,NO2,22,23,23
India,Telangana,Hyderabad,"IITH Kandi, Hyderabad - TSPCB","13-01-2026 14:00:00",17.585705,78.126199,PM2.5,29,57,46
India,Telangana,Hyderabad,"Kompally Municipal Office, Hyderabad - TSPCB","13-01-2026 14:00:00",17.544899,78.486949,SO2,5,15,8
India,Telangana,Hyderabad,"Nacharam_TSIIC IALA, Hyderabad - TSPCB","13-01-2026 14:00:00",17.429398,78.569354,NO2,18,20,20
India,Telangana,Hyderabad,"Kokapet, Hyderabad - TSPCB","13-01-2026 14:00:00",17.393559,78.339194,CO,14,32,17
India,Telangana,Hyderabad,"Kokapet, Hyderabad - TSPCB","13-01-2026 14:00:00",17.393559,78.339194,OZONE,15,34,18
India,Tripura,Agartala,"Bardowali, Agartala - Tripura SPCB","13-01-2026 14:00:00",23.8175497,91.2726974,SO2,9,10,9
India,Uttar_Pradesh,Agra,"Manoharpur, Agra - UPPCB","13-01-2026 14:00:00",27.23711,78.01936,PM2.5,56,392,179
India,Uttar_Pradesh,Agra,"Manoharpur, Agra - UPPCB","13-01-2026 14:00:00",27.23711,78.01936,PM10,72,430,178
India,Uttar_Pradesh,Agra,"Manoharpur, Agra - UPPCB","13-01-2026 14:00:00",27.23711,78.01936,CO,20,24,22
India,Uttar_Pradesh,Agra,"Rohta, Agra - UPPCB","13-01-2026 14:00:00",27.106972,78.000111,NO2,16,16,16
India,Uttar_Pradesh,Agra,"Sanjay Palace, Agra - UPPCB","13-01-2026 14:00:00",27.19865833,78.00598056,PM2.5,89,500,282
India,Uttar_Pradesh,Agra,"Sanjay Palace, Agra - UPPCB","13-01-2026 14:00:00",27.19865833,78.00598056,OZONE,2,98,45
India,Uttar_Pradesh,Agra,"Sector-3B Avas Vikas Colony, Agra - UPPCB","13-01-2026 14:00:00",27.19412,77.96237,NH3,4,10,7
India,Uttar_Pradesh,Agra,"Sector-3B Avas Vikas Colony, Agra - UPPCB","13-01-2026 14:00:00",27.19412,77.96237,SO2,11,19,14
India,Uttar_Pradesh,Agra,"Shahjahan Garden, Agra - UPPCB","13-01-2026 14:00:00",27.169338,78.03582,NH3,6,6,6
India,Uttar_Pradesh,Agra,"Shastripuram, Agra - UPPCB","13-01-2026 14:00:00",27.19862,77.92066,SO2,14,19,17
India,Uttar_Pradesh,Agra,"Shastripuram, Agra - UPPCB","13-01-2026 14:00:00",27.19862,77.92066,OZONE,10,11,11
India,Uttar_Pradesh,Baghpat,"Sardar Patel Inter College, Baghpat - UPPCB","13-01-2026 14:00:00",28.964949,77.278761,NO2,12,29,19
India,Uttar_Pradesh,Baghpat,"Sardar Patel Inter College, Baghpat - UPPCB","13-01-2026 14:00:00",28.964949,77.278761,CO,1,26,4
India,Uttar_Pradesh,Bareilly,"Civil Lines, Bareilly - UPPCB","13-01-2026 14:00:00",28.359581,79.414455,PM10,46,101,69
India,Uttar_Pradesh,Bareilly,"Civil Lines, Bareilly - UPPCB","13-01-2026 14:00:00",28.359581,79.414455,CO,57,102,70
India,Uttar_Pradesh,Bareilly,"Rajendra Nagar, Bareilly - UPPCB","13-01-2026 14:00:00",28.38910936,79.42963708,PM2.5,48,132,77
India,Uttar_Pradesh,Bareilly,"Rajendra Nagar, Bareilly - UPPCB","13-01-2026 14:00:00",28.38910936,79.42963708,NO2,9,10,10
India,Uttar_Pradesh,Ghaziabad,"Indirapuram, Ghaziabad - UPPCB","13-01-2026 14:00:00",28.646233,77.358075,CO,36,128,77
India,Uttar_Pradesh,Ghaziabad,"Sanjay Nagar, Ghaziabad - UPPCB","13-01-2026 14:00:00",28.685382,77.453839,SO2,8,21,12
India,Uttar_Pradesh,Ghaziabad,"Vasundhara, Ghaziabad - UPPCB","13-01-2026 14:00:00",28.6603346,77.3572563,NO2,NA,NA,NA
India,Uttar_Pradesh,Ghaziabad,"Vasundhara, Ghaziabad - UPPCB","13-01-2026 14:00:00",28.6603346,77.3572563,NH3,NA,NA,NA
India,Uttar_Pradesh,Gorakhpur,"Madan Mohan Malaviya University of Technology, Gorakhpur - UPPCB","13-01-2026 14:00:00",26.730136,83.433859,PM2.5,49,163,84
India,Uttar_Pradesh,Gorakhpur,"Madan Mohan Malaviya University of Technology, Gorakhpur - UPPCB","13-01-2026 14:00:00",26.730136,83.433859,NO2,11,12,11
India,Uttar_Pradesh,Kanpur,"NSI Kalyanpur, Kanpur - UPPCB","13-01-2026 14:00:00",26.509954,80.249612,SO2,20,22,21
India,Uttar_Pradesh,Kanpur,"Nehru Nagar, Kanpur - UPPCB","13-01-2026 14:00:00",26.4703136,80.3229863,PM2.5,80,357,212
India,Uttar_Pradesh,Kanpur,"Nehru Nagar, Kanpur - UPPCB","13-01-2026 14:00:00",26.4703136,80.3229863,OZONE,18,23,22
India,Uttar_Pradesh,Khurja,"Kalindi Kunj, Khurja - UPPCB","13-01-2026 14:00:00",28.2348927,77.8683002,OZONE,12,34,24
India,Uttar_Pradesh,Lucknow,"B R Ambedkar University, Lucknow - UPPCB","13-01-2026 14:00:00",26.766433,80.927299,PM10,39,129,86
India,Telangana,Hyderabad,"Ramachandrapuram, Hyderabad - TSPCB","13-01-2026 14:00:00",17.528544,78.286195,PM10,67,76,72
India,Telangana,Hyderabad,"Ramachandrapuram, Hyderabad - TSPCB","13-01-2026 14:00:00",17.528544,78.286195,SO2,11,15,14
India,Telangana,Hyderabad,"Somajiguda, Hyderabad - TSPCB","13-01-2026 14:00:00",17.417094,78.457437,CO,18,30,24
India,Telangana,Hyderabad,"Zoo Park, Hyderabad - TSPCB","13-01-2026 14:00:00",17.349694,78.451437,CO,14,102,58
India,Tripura,Agartala,"Bardowali, Agartala - Tripura SPCB","13-01-2026 14:00:00",23.8175497,91.2726974,NH3,6,8,7
India,Uttar_Pradesh,Hapur,"Anand Vihar, Hapur - UPPCB","13-01-2026 14:00:00",28.725645,77.749675,PM2.5,52,323,226
India,Uttar_Pradesh,Jhansi,"Shivaji Nagar, Jhansi - UPPCB","13-01-2026 14:00:00",25.4547,78.6039,NO2,6,6,6
India,Uttar_Pradesh,Jhansi,"Shivaji Nagar, Jhansi - UPPCB","13-01-2026 14:00:00",25.4547,78.6039,SO2,16,48,21
India,Uttar_Pradesh,Kanpur,"FTI Kidwai Nagar, Kanpur - UPPCB","13-01-2026 14:00:00",26.428282,80.327067,CO,36,66,40
India,Uttar_Pradesh,Bulandshahr,"Yamunapuram, Bulandshahr - UPPCB","13-01-2026 14:00:00",28.406963,77.849831,SO2,5,43,22
India,Uttar_Pradesh,Firozabad,"Nagla Bhau, Firozabad - UPPCB","13-01-2026 14:00:00",27.168897,78.376960,OZONE,13,17,14
India,Uttar_Pradesh,Firozabad,"Vibhab Nagar, Firozabad - UPPCB","13-01-2026 14:00:00",27.1594,78.3953,PM2.5,45,345,138
India,Uttar_Pradesh,Firozabad,"Vibhab Nagar, Firozabad - UPPCB","13-01-2026 14:00:00",27.1594,78.3953,NH3,2,2,2
India,Uttar_Pradesh,Ghaziabad,"Indirapuram, Ghaziabad - UPPCB","13-01-2026 14:00:00",28.646233,77.358075,PM2.5,129,421,328
India,Uttar_Pradesh,Lucknow,"Lalbagh, Lucknow - CPCB","13-01-2026 14:00:00",26.8458805,80.9365541,NO2,44,49,46
India,Uttar_Pradesh,Lucknow,"Lalbagh, Lucknow - CPCB","13-01-2026 14:00:00",26.8458805,80.9365541,SO2,2,26,9
India,Uttar_Pradesh,Lucknow,"Talkatora District Industries Center, Lucknow - CPCB","13-01-2026 14:00:00",26.83399722,80.8917361,NH3,4,11,9
India,Uttar_Pradesh,Meerut,"Ganga Nagar, Meerut - UPPCB","13-01-2026 14:00:00",28.999264,77.7590354,PM10,124,406,214
India,Uttar_Pradesh,Meerut,"Ganga Nagar, Meerut - UPPCB","13-01-2026 14:00:00",28.999264,77.7590354,NH3,12,19,14
India,Uttar_Pradesh,Meerut,"Ganga Nagar, Meerut - UPPCB","13-01-2026 14:00:00",28.999264,77.7590354,SO2,21,51,27
India,Uttar_Pradesh,Meerut,"Ganga Nagar, Meerut - UPPCB","13-01-2026 14:00:00",28.999264,77.7590354,CO,42,116,67
India,Uttar_Pradesh,Meerut,"Jai Bhim Nagar, Meerut - UPPCB","13-01-2026 14:00:00",28.9535882,77.7622941,NO2,12,30,18
India,Uttar_Pradesh,Meerut,"Pallavpuram Phase 2, Meerut - UPPCB","13-01-2026 14:00:00",29.063510,77.709723,PM2.5,212,389,308
India,Uttar_Pradesh,Meerut,"Pallavpuram Phase 2, Meerut - UPPCB","13-01-2026 14:00:00",29.063510,77.709723,PM10,126,410,192
India,Uttar_Pradesh,Meerut,"Pallavpuram Phase 2, Meerut - UPPCB","13-01-2026 14:00:00",29.063510,77.709723,OZONE,2,94,31
India,Uttar_Pradesh,Moradabad,"Buddhi Vihar, Moradabad - UPPCB","13-01-2026 14:00:00",28.83526,78.74460,PM2.5,44,296,103
India,Uttar_Pradesh,Moradabad,"Buddhi Vihar, Moradabad - UPPCB","13-01-2026 14:00:00",28.83526,78.74460,PM10,57,216,102
India,Uttar_Pradesh,Moradabad,"Buddhi Vihar, Moradabad - UPPCB","13-01-2026 14:00:00",28.83526,78.74460,NO2,29,29,29
India,West_Bengal,Haldia,"Priyambada Housing Estate, Haldia - WBPCB","13-01-2026 14:00:00",22.06047,88.109737,CO,29,60,45
India,West_Bengal,Howrah,"Belur Math, Howrah - WBPCB","13-01-2026 14:00:00",22.629801,88.352017,NH3,10,15,12
India,West_Bengal,Howrah,"Belur Math, Howrah - WBPCB","13-01-2026 14:00:00",22.629801,88.352017,SO2,12,35,19
India,West_Bengal,Howrah,"Botanical Garden, Howrah - WBPCB","13-01-2026 14:00:00",22.554954,88.292568,SO2,2,10,5
India,West_Bengal,Howrah,"Dasnagar, Howrah - WBPCB","13-01-2026 14:00:00",22.6025571,88.3105664,PM10,59,113,91
India,West_Bengal,Howrah,"Dasnagar, Howrah - WBPCB","13-01-2026 14:00:00",22.6025571,88.3105664,NH3,7,9,8
India,West_Bengal,Howrah,"Dasnagar, Howrah - WBPCB","13-01-2026 14:00:00",22.6025571,88.3105664,SO2,8,41,18
India,West_Bengal,Howrah,"Ghusuri, Howrah - WBPCB","13-01-2026 14:00:00",22.611968,88.347422,PM2.5,100,318,216
India,West_Bengal,Howrah,"Ghusuri, Howrah - WBPCB","13-01-2026 14:00:00",22.611968,88.347422,NO2,21,37,26
India,Uttar_Pradesh,Moradabad,"Eco Herbal Park, Moradabad - UPPCB","13-01-2026 14:00:00",28.840739,78.697531,CO,9,84,32
India,Uttar_Pradesh,Moradabad,"Eco Herbal Park, Moradabad - UPPCB","13-01-2026 14:00:00",28.840739,78.697531,OZONE,3,74,28
India,Uttar_Pradesh,Moradabad,"Employment Office, Moradabad - UPPCB","13-01-2026 14:00:00",28.88528,78.73880,PM2.5,58,218,122
India,Uttar_Pradesh,Moradabad,"Employment Office, Moradabad - UPPCB","13-01-2026 14:00:00",28.88528,78.73880,OZONE,32,82,47
India,Uttar_Pradesh,Moradabad,"Jigar Colony, Moradabad - UPPCB","13-01-2026 14:00:00",28.856664,78.772638,PM10,65,137,107
India,Uttar_Pradesh,Moradabad,"Jigar Colony, Moradabad - UPPCB","13-01-2026 14:00:00",28.856664,78.772638,NO2,25,25,25
India,Uttar_Pradesh,Moradabad,"Kashiram Nagar, Moradabad - UPPCB","13-01-2026 14:00:00",28.849399,78.742362,CO,38,74,45
India,Uttar_Pradesh,Muzaffarnagar,"New Mandi, Muzaffarnagar - UPPCB","13-01-2026 14:00:00",29.4723508,77.7194031,PM2.5,85,328,212
India,Uttar_Pradesh,Muzaffarnagar,"New Mandi, Muzaffarnagar - UPPCB","13-01-2026 14:00:00",29.4723508,77.7194031,NO2,70,158,93
India,Uttar_Pradesh,Muzaffarnagar,"New Mandi, Muzaffarnagar - UPPCB","13-01-2026 14:00:00",29.4723508,77.7194031,CO,66,104,93
India,Uttar_Pradesh,Noida,"Sector - 62, Noida - IMD","13-01-2026 14:00:00",28.6245479,77.3577104,PM10,131,471,303
India,Uttar_Pradesh,Noida,"Sector - 62, Noida - IMD","13-01-2026 14:00:00",28.6245479,77.3577104,NO2,17,143,35
India,Uttar_Pradesh,Noida,"Sector - 62, Noida - IMD","13-01-2026 14:00:00",28.6245479,77.3577104,OZONE,6,58,14
India,Uttar_Pradesh,Noida,"Sector-1, Noida - UPPCB","13-01-2026 14:00:00",28.5898,77.3101,PM10,114,474,296
India,Uttar_Pradesh,Vrindavan,"Omex Eternity, Vrindavan - UPPCB","13-01-2026 14:00:00",27.5714090,77.6557570,NH3,2,13,10
India,Uttar_Pradesh,Vrindavan,"Omex Eternity, Vrindavan - UPPCB","13-01-2026 14:00:00",27.5714090,77.6557570,SO2,15,27,17
India,Uttarakhand,Kashipur,"Govt. Girls Inter College, Kashipur - UKPCB","13-01-2026 14:00:00",29.2124114,78.9611753,NH3,NA,NA,NA
India,Uttarakhand,Kashipur,"Govt. Girls Inter College, Kashipur - UKPCB","13-01-2026 14:00:00",29.2124114,78.9611753,CO,38,46,44
India,Uttarakhand,Rishikesh,"Shivaji Nagar, Rishikesh - UKPCB","13-01-2026 14:00:00",30.075911,78.2859547,NH3,6,13,8
India,Uttar_Pradesh,Varanasi,"Bhelupur, Varanasi - UPPCB","13-01-2026 14:00:00",25.301778,82.996789,OZONE,NA,NA,NA
India,Uttar_Pradesh,Varanasi,"IESD Banaras Hindu University, Varanasi - UPPCB","13-01-2026 14:00:00",25.262326,82.995408,PM2.5,18,122,69
India,Uttar_Pradesh,Varanasi,"IESD Banaras Hindu University, Varanasi - UPPCB","13-01-2026 14:00:00",25.262326,82.995408,PM10,58,139,106
India,Uttar_Pradesh,Varanasi,"IESD Banaras Hindu University, Varanasi - UPPCB","13-01-2026 14:00:00",25.262326,82.995408,NH3,1,4,2
India,Uttar_Pradesh,Varanasi,"Maldahiya, Varanasi - UPPCB","13-01-2026 14:00:00",25.32393,82.99687,PM2.5,46,120,88
India,West_Bengal,Durgapur,"PCBL Residential Complex, Durgapur - WBPCB","13-01-2026 14:00:00",23.5087640,87.3544400,OZONE,5,6,6
India,West_Bengal,Durgapur,"Womens College_City Center, Durgapur - WBPCB (Formerly known as Sidhu Kanhu Indoor Stadium)","13-01-2026 14:00:00",23.549395,87.300496,SO2,NA,NA,NA
India,West_Bengal,Haldia,"Priyambada Housing Estate, Haldia - WBPCB","13-01-2026 14:00:00",22.06047,88.109737,NO2,15,33,22
India,Uttar_Pradesh,Noida,"Sector-1, Noida - UPPCB","13-01-2026 14:00:00",28.5898,77.3101,CO,9,150,52
India,Uttar_Pradesh,Noida,"Sector-116, Noida - UPPCB","13-01-2026 14:00:00",28.569230,77.393848,PM2.5,203,500,372
India,Uttar_Pradesh,Noida,"Sector-116, Noida - UPPCB","13-01-2026 14:00:00",28.569230,77.393848,NH3,15,38,26
India,Uttar_Pradesh,Prayagraj,"Jhunsi, Prayagraj - UPPCB","13-01-2026 14:00:00",25.425602,81.917152,PM10,68,216,119
India,Uttar_Pradesh,Prayagraj,"Jhunsi, Prayagraj - UPPCB","13-01-2026 14:00:00",25.425602,81.917152,CO,14,78,26
India,West_Bengal,Asansol,"Evelyn Lodge, Asansol - WBPCB","13-01-2026 14:00:00",23.6979360,86.9443950,OZONE,13,58,41
India,West_Bengal,Asansol,"Mahabir Colliery, Asansol - WBPCB","13-01-2026 14:00:00",23.6181830,87.1057180,NH3,1,2,1
India,West_Bengal,Asansol,"Mahabir Colliery, Asansol - WBPCB","13-01-2026 14:00:00",23.6181830,87.1057180,SO2,4,9,6
India,West_Bengal,Asansol,"Trivenidevi Bhalotia College, Asansol - WBPCB","13-01-2026 14:00:00",23.616515,87.119133,NO2,NA,NA,NA
India,West_Bengal,Howrah,"Ghusuri, Howrah - WBPCB","13-01-2026 14:00:00",22.611968,88.347422,SO2,9,14,11
India,West_Bengal,Howrah,"Ghusuri, Howrah - WBPCB","13-01-2026 14:00:00",22.611968,88.347422,CO,24,73,48
India,West_Bengal,Howrah,"Ghusuri, Howrah - WBPCB","13-01-2026 14:00:00",22.611968,88.347422,OZONE,9,26,15
India,West_Bengal,Kolkata,"Ballygunge, Kolkata - WBPCB","13-01-2026 14:00:00",22.5367507,88.3638022,SO2,11,31,19
India,West_Bengal,Kolkata,"Bidhannagar, Kolkata - WBPCB","13-01-2026 14:00:00",22.58157048,88.41002457,PM10,76,143,118
India,West_Bengal,Kolkata,"Fort William, Kolkata - WBPCB","13-01-2026 14:00:00",22.556640,88.342674,NO2,15,20,17
India,West_Bengal,Kolkata,"Fort William, Kolkata - WBPCB","13-01-2026 14:00:00",22.556640,88.342674,SO2,6,20,10
India,West_Bengal,Kolkata,"Jadavpur, Kolkata - WBPCB","13-01-2026 14:00:00",22.49929,88.36917,PM2.5,40,104,70
India,West_Bengal,Kolkata,"Jadavpur, Kolkata - WBPCB","13-01-2026 14:00:00",22.49929,88.36917,PM10,37,106,72
India,West_Bengal,Kolkata,"Rabindra Bharati University, Kolkata - WBPCB","13-01-2026 14:00:00",22.627847,88.380669,NO2,51,155,101
India,West_Bengal,Kolkata,"Rabindra Bharati University, Kolkata - WBPCB","13-01-2026 14:00:00",22.627847,88.380669,CO,51,100,58
India,West_Bengal,Kolkata,"Rabindra Sarobar, Kolkata - WBPCB","13-01-2026 14:00:00",22.51106,88.35142,PM10,92,122,105
India,West_Bengal,Siliguri,"Ward-32 Bapupara, Siliguri - WBPCB","13-01-2026 14:00:00",26.6879226,88.4152495,CO,29,104,56
India,West_Bengal,Siliguri,"Ward-32 Bapupara, Siliguri - WBPCB","13-01-2026 14:00:00",26.6879226,88.4152495,OZONE,11,84,52
India,Bihar,"Bihar Sharif","D M Colony, Bihar Sharif - BSPCB","13-01-2026 14:00:00",25.204762,85.514960,PM10,39,125,83
India,Bihar,"Bihar Sharif","D M Colony, Bihar Sharif - BSPCB","13-01-2026 14:00:00",25.204762,85.514960,SO2,9,10,10
India,Bihar,Buxar,"Charitra Van, Buxar - BSPCB","13-01-2026 14:00:00",25.567520,83.966379,PM2.5,78,167,113
India,Bihar,Buxar,"Charitra Van, Buxar - BSPCB","13-01-2026 14:00:00",25.567520,83.966379,SO2,9,23,17
India,Bihar,Buxar,"Charitra Van, Buxar - BSPCB","13-01-2026 14:00:00",25.567520,83.966379,OZONE,9,54,34
India,Bihar,Chhapra,"Darshan Nagar, Chhapra - BSPCB","13-01-2026 14:00:00",25.7808257,84.7446768,CO,9,156,44
India,Bihar,Gaya,"Collectorate, Gaya - BSPCB","13-01-2026 14:00:00",24.7955,84.9994,PM2.5,53,249,111
India,Bihar,Gaya,"Collectorate, Gaya - BSPCB","13-01-2026 14:00:00",24.7955,84.9994,CO,36,54,39
India,Bihar,Gaya,"Collectorate, Gaya - BSPCB","13-01-2026 14:00:00",24.7955,84.9994,OZONE,18,20,20
India,Bihar,Gaya,"Kareemganj, Gaya - BSPCB","13-01-2026 14:00:00",24.792403,84.992416,PM10,60,223,123
India,Bihar,Aurangabad,"Gurdeo Nagar, Aurangabad - BSPCB","13-01-2026 14:00:00",24.75746,84.366208,PM10,74,169,111
India,Bihar,Begusarai,"Lohiyanagar, Begusarai - BSPCB","13-01-2026 14:00:00",25.42742023,86.13886079,PM2.5,110,293,159
India,Bihar,Begusarai,"Lohiyanagar, Begusarai - BSPCB","13-01-2026 14:00:00",25.42742023,86.13886079,PM10,133,272,167
India,Bihar,Bettiah,"Kamalnath Nagar, Bettiah - BSPCB","13-01-2026 14:00:00",26.80365,84.51954,PM2.5,72,367,188
India,Bihar,Bettiah,"Kamalnath Nagar, Bettiah - BSPCB","13-01-2026 14:00:00",26.80365,84.51954,SO2,5,33,16
India,Bihar,Bhagalpur,"DM Office_Kachari Chowk, Bhagalpur - BSPCB","13-01-2026 14:00:00",25.251013,86.989001,SO2,13,87,43
India,Bihar,Bhagalpur,"Mayaganj, Bhagalpur - BSPCB","13-01-2026 14:00:00",25.265194,87.012947,PM2.5,40,85,66
India,Bihar,Bhagalpur,"Mayaganj, Bhagalpur - BSPCB","13-01-2026 14:00:00",25.265194,87.012947,NO2,4,8,7
India,Andhra_Pradesh,Vijayawada,"Rajiv Gandhi Park, Vijayawada - APPCB","13-01-2026 14:00:00",16.509717,80.612222,NO2,47,80,59
India,Andhra_Pradesh,Vijayawada,"Rajiv Gandhi Park, Vijayawada - APPCB","13-01-2026 14:00:00",16.509717,80.612222,OZONE,12,40,27
India,Andhra_Pradesh,Vijayawada,"Rajiv Nagar, Vijayawada - APPCB","13-01-2026 14:00:00",16.554731,80.649110,PM2.5,76,231,109
India,Andhra_Pradesh,Vijayawada,"Rajiv Nagar, Vijayawada - APPCB","13-01-2026 14:00:00",16.554731,80.649110,PM10,91,156,109
India,Andhra_Pradesh,Vijayawada,"Rajiv Nagar, Vijayawada - APPCB","13-01-2026 14:00:00",16.554731,80.649110,NH3,4,6,6
India,Andhra_Pradesh,Vijayawada,"Rajiv Nagar, Vijayawada - APPCB","13-01-2026 14:00:00",16.554731,80.649110,CO,18,26,22
India,Andhra_Pradesh,Visakhapatnam,"GVM Corporation, Visakhapatnam - APPCB","13-01-2026 14:00:00",17.72,83.3,CO,10,68,30
India,Andhra_Pradesh,Visakhapatnam,"GVM Corporation, Visakhapatnam - APPCB","13-01-2026 14:00:00",17.72,83.3,OZONE,7,81,56
India,Assam,Silchar,"Tarapur, Silchar - PCBA","13-01-2026 14:00:00",24.82827,92.79525,PM2.5,23,81,46
India,Assam,Silchar,"Tarapur, Silchar - PCBA","13-01-2026 14:00:00",24.82827,92.79525,NO2,18,29,26
India,Assam,Sivasagar,"Girls College, Sivasagar - PCBA","13-01-2026 14:00:00",26.987634,94.636574,PM10,38,95,66
India,Assam,Sivasagar,"Girls College, Sivasagar - PCBA","13-01-2026 14:00:00",26.987634,94.636574,NO2,26,50,36
India,Assam,Sivasagar,"Girls College, Sivasagar - PCBA","13-01-2026 14:00:00",26.987634,94.636574,OZONE,4,90,46
India,Bihar,Araria,"Kharahiya Basti, Araria - BSPCB","13-01-2026 14:00:00",26.146529,87.454184,PM2.5,28,240,110
India,Bihar,Araria,"Kharahiya Basti, Araria - BSPCB","13-01-2026 14:00:00",26.146529,87.454184,NH3,4,4,4
India,Bihar,Araria,"Kharahiya Basti, Araria - BSPCB","13-01-2026 14:00:00",26.146529,87.454184,OZONE,9,10,10
India,Bihar,Manguraha,"Forest Rest House, Manguraha - BSPCB","13-01-2026 14:00:00",27.308328,84.531742,OZONE,9,11,10
India,Bihar,Motihari,"Gandak Colony, Motihari - BSPCB","13-01-2026 14:00:00",26.63086,84.90051,SO2,2,3,2
India,Bihar,Munger,"Town Hall, Munger - BSPCB","13-01-2026 14:00:00",25.376776,86.471523,NO2,4,5,5
India,Bihar,Munger,"Town Hall, Munger - BSPCB","13-01-2026 14:00:00",25.376776,86.471523,NH3,3,9,6
India,Bihar,Muzaffarpur,"Buddha Colony, Muzaffarpur - BSPCB","13-01-2026 14:00:00",26.11442,85.39813,PM10,68,197,104
India,Bihar,Muzaffarpur,"Buddha Colony, Muzaffarpur - BSPCB","13-01-2026 14:00:00",26.11442,85.39813,NO2,37,78,47
India,Andhra_Pradesh,Anantapur,"Gulzarpet, Anantapur - APPCB","13-01-2026 14:00:00",14.675886,77.593027,NH3,4,4,4
India,Andhra_Pradesh,Anantapur,"Gulzarpet, Anantapur - APPCB","13-01-2026 14:00:00",14.675886,77.593027,CO,10,28,16
India,Andhra_Pradesh,Chittoor,"Gangineni Cheruvu, Chittoor - APPCB","13-01-2026 14:00:00",13.204880,79.097889,SO2,6,35,15
India,Andhra_Pradesh,Chittoor,"Gangineni Cheruvu, Chittoor - APPCB","13-01-2026 14:00:00",13.204880,79.097889,CO,2,14,11
India,Andhra_Pradesh,Kadapa,"Yerramukkapalli, Kadapa - APPCB","13-01-2026 14:00:00",14.465052,78.824187,NH3,4,5,4
India,Andhra_Pradesh,Kadapa,"Yerramukkapalli, Kadapa - APPCB","13-01-2026 14:00:00",14.465052,78.824187,SO2,13,17,17
India,Andhra_Pradesh,Kadapa,"Yerramukkapalli, Kadapa - APPCB","13-01-2026 14:00:00",14.465052,78.824187,OZONE,20,22,22
India,Bihar,Gaya,"Kareemganj, Gaya - BSPCB","13-01-2026 14:00:00",24.792403,84.992416,OZONE,1,65,30
India,Bihar,Gaya,"SFTI Kusdihra, Gaya - BSPCB","13-01-2026 14:00:00",24.762518,84.982348,NO2,19,23,21
India,Bihar,Hajipur,"Industrial Area, Hajipur - BSPCB","13-01-2026 14:00:00",25.697189,85.245900,OZONE,3,101,60
India,Bihar,Katihar,"Mirchaibari, Katihar - BSPCB","13-01-2026 14:00:00",25.560083,87.553265,PM10,48,131,98
India,Bihar,Katihar,"Mirchaibari, Katihar - BSPCB","13-01-2026 14:00:00",25.560083,87.553265,CO,78,102,91
India,Bihar,Katihar,"Mirchaibari, Katihar - BSPCB","13-01-2026 14:00:00",25.560083,87.553265,OZONE,26,33,29
India,Assam,Byrnihat,"Central Academy for SFS, Byrnihat - PCBA","13-01-2026 14:00:00",26.071318,91.87488,NH3,4,4,4
India,Assam,Guwahati,"LGBI Airport, Guwahati - PCBA","13-01-2026 14:00:00",26.10887,91.589544,CO,20,50,34
India,Assam,Guwahati,"Railway Colony, Guwahati - PCBA","13-01-2026 14:00:00",26.181742,91.78063,CO,34,109,53
India,Assam,Nalbari,"Bata Chowk, Nalbari - PCBA","13-01-2026 14:00:00",26.446912,91.439057,PM10,110,121,115
India,Andhra_Pradesh,Tirumala,"Toll Gate, Tirumala - APPCB","13-01-2026 14:00:00",13.67,79.35,NO2,10,23,17
India,Andhra_Pradesh,Tirupati,"Vaikuntapuram, Tirupati - APPCB","13-01-2026 14:00:00",13.615387,79.409230,OZONE,10,25,13
India,Andhra_Pradesh,Amaravati,"Secretariat, Amaravati - APPCB","13-01-2026 14:00:00",16.5150833,80.5181667,PM10,61,120,104
India,Andhra_Pradesh,Amaravati,"Secretariat, Amaravati - APPCB","13-01-2026 14:00:00",16.5150833,80.5181667,NO2,22,38,29
India,Bihar,Muzaffarpur,"MIT-Daudpur Kothi, Muzaffarpur - BSPCB","13-01-2026 14:00:00",26.1403345,85.3650192,OZONE,5,50,20
India,Bihar,Muzaffarpur,"Muzaffarpur Collectorate, Muzaffarpur - BSPCB","13-01-2026 14:00:00",26.1209,85.3647,CO,20,70,32
India,Bihar,Patna,"Govt. High School Shikarpur, Patna - BSPCB","13-01-2026 14:00:00",25.592539,85.227158,NH3,4,5,5
India,Bihar,Patna,"Govt. High School Shikarpur, Patna - BSPCB","13-01-2026 14:00:00",25.592539,85.227158,SO2,12,18,14
India,Bihar,Patna,"IGSC Planetarium Complex, Patna - BSPCB","13-01-2026 14:00:00",25.610369,85.132568,SO2,1,40,34
India,Bihar,Patna,"IGSC Planetarium Complex, Patna - BSPCB","13-01-2026 14:00:00",25.610369,85.132568,OZONE,28,29,28
India,Bihar,Patna,"Muradpur, Patna - BSPCB","13-01-2026 14:00:00",25.619651,85.147382,NO2,6,9,7
India,Bihar,Patna,"Muradpur, Patna - BSPCB","13-01-2026 14:00:00",25.619651,85.147382,CO,42,86,50
India,Chhattisgarh,Chhal,"Nawapara SECL Colony, Chhal - CECB","13-01-2026 14:00:00",22.118125,83.140608,CO,20,69,32
India,Chhattisgarh,Korba,"Rampur, Korba - CECB","13-01-2026 14:00:00",22.368195,82.746431,PM10,39,144,70
India,Chhattisgarh,Korba,"Rampur, Korba - CECB","13-01-2026 14:00:00",22.368195,82.746431,NO2,16,40,31
India,Chhattisgarh,Korba,"Rampur, Korba - CECB","13-01-2026 14:00:00",22.368195,82.746431,SO2,10,50,18
India,Chhattisgarh,Korba,"Urja Nagar, Korba - CECB","13-01-2026 14:00:00",22.348441,82.549611,SO2,NA,NA,NA
India,Chhattisgarh,Kunjemura,"OP Jindal School, Kunjemura - CECB","13-01-2026 14:00:00",22.126650,83.483212,CO,18,47,33
India,Chhattisgarh,Milupara,"Govt. Higher Secondary School, Milupara - CECB","13-01-2026 14:00:00",22.1910172,83.5197009,NO2,15,60,30
India,Bihar,Samastipur,"DM Office_Kasipur, Samastipur - BSPCB","13-01-2026 14:00:00",25.859655,85.77944,NO2,8,9,8
India,Bihar,Samastipur,"DM Office_Kasipur, Samastipur - BSPCB","13-01-2026 14:00:00",25.859655,85.77944,CO,4,11,7
India,Bihar,Sasaram,"Dada Peer, Sasaram - BSPCB","13-01-2026 14:00:00",24.952822,84.002396,NH3,2,3,3
India,Bihar,Sasaram,"Dada Peer, Sasaram - BSPCB","13-01-2026 14:00:00",24.952822,84.002396,SO2,2,5,4
India,Bihar,Siwan,"Chitragupta Nagar, Siwan - BSPCB","13-01-2026 14:00:00",26.2271665,84.3570427,PM2.5,47,173,110
India,Bihar,Siwan,"Chitragupta Nagar, Siwan - BSPCB","13-01-2026 14:00:00",26.2271665,84.3570427,OZONE,14,16,15
India,Chandigarh,Chandigarh,"Sector 22, Chandigarh - CPCC","13-01-2026 14:00:00",30.735567,76.775714,NH3,9,17,15
India,Delhi,Delhi,"Dr. Karni Singh Shooting Range, Delhi - DPCC","13-01-2026 14:00:00",28.498571,77.264840,CO,18,147,81
India,Delhi,Delhi,"Dwarka-Sector 8, Delhi - DPCC ","13-01-2026 14:00:00",28.5710274,77.0719006,PM10,125,500,387
India,Delhi,Delhi,"Dwarka-Sector 8, Delhi - DPCC ","13-01-2026 14:00:00",28.5710274,77.0719006,OZONE,4,130,32
India,Delhi,Delhi,"IGI Airport (T3), Delhi - IMD","13-01-2026 14:00:00",28.5627763,77.1180053,PM2.5,70,449,318
India,Delhi,Delhi,"IGI Airport (T3), Delhi - IMD","13-01-2026 14:00:00",28.5627763,77.1180053,NO2,65,161,112
India,Delhi,Delhi,"ITO, Delhi - CPCB","13-01-2026 14:00:00",28.628624,77.241060,NO2,25,257,157
India,Delhi,Delhi,"ITO, Delhi - CPCB","13-01-2026 14:00:00",28.628624,77.241060,NH3,4,5,5
India,Chhattisgarh,Milupara,"Govt. Higher Secondary School, Milupara - CECB","13-01-2026 14:00:00",22.1910172,83.5197009,OZONE,5,137,66
India,Chhattisgarh,Raipur,"AIIMS, Raipur - CECB","13-01-2026 14:00:00",21.258815,81.578979,NH3,4,4,4
India,Chhattisgarh,Raipur,"AIIMS, Raipur - CECB","13-01-2026 14:00:00",21.258815,81.578979,CO,38,89,53
India,Chhattisgarh,Raipur,"Siltara Phase-II, Raipur - CECB","13-01-2026 14:00:00",21.371751,81.664929,CO,34,36,34
India,Chhattisgarh,Tumidih,"OP Jindal Industrial Park, Tumidih - CECB","13-01-2026 14:00:00",22.06631475,83.33820077,PM2.5,27,82,52
India,Bihar,Patna,"Rajbansi Nagar, Patna - BSPCB","13-01-2026 14:00:00",25.599486,85.113666,OZONE,22,28,24
India,Bihar,Patna,"Samanpura, Patna - BSPCB","13-01-2026 14:00:00",25.596727,85.085624,NO2,20,23,22
India,Bihar,Patna,"Samanpura, Patna - BSPCB","13-01-2026 14:00:00",25.596727,85.085624,CO,8,140,17
India,Bihar,Purnia,"Mariam Nagar, Purnia - BSPCB","13-01-2026 14:00:00",25.366336,87.117468,CO,50,60,58
India,Bihar,Rajgir,"Dangi Tola, Rajgir - BSPCB","13-01-2026 14:00:00",25.03280,85.41948,NO2,8,10,9
India,Bihar,Rajgir,"Dangi Tola, Rajgir - BSPCB","13-01-2026 14:00:00",25.03280,85.41948,NH3,6,7,6
India,Chhattisgarh,Bhilai,"32Bungalows, Bhilai - CECB","13-01-2026 14:00:00",21.194815,81.314770,NO2,30,82,49
India,Chhattisgarh,Bhilai,"32Bungalows, Bhilai - CECB","13-01-2026 14:00:00",21.194815,81.314770,CO,20,54,30
India,Chhattisgarh,Bhilai,"Civic Center, Bhilai - Bhilai Steel Plant","13-01-2026 14:00:00",21.185571,81.343175,PM10,25,118,61
India,Chhattisgarh,Bilaspur,"Mangala, Bilaspur - NTPC","13-01-2026 14:00:00",22.08815,82.13737,NO2,25,59,33
India,Chhattisgarh,Bilaspur,"Mangala, Bilaspur - NTPC","13-01-2026 14:00:00",22.08815,82.13737,SO2,8,26,12
India,Delhi,Delhi,"Burari Crossing, Delhi - IMD","13-01-2026 14:00:00",28.7256504,77.2011573,PM10,140,414,286
India,Delhi,Delhi,"Burari Crossing, Delhi - IMD","13-01-2026 14:00:00",28.7256504,77.2011573,OZONE,9,131,31
India,Delhi,Delhi,"CRRI Mathura Road, Delhi - IMD","13-01-2026 14:00:00",28.5512005,77.2735737,PM2.5,84,470,335
India,Delhi,Delhi,"CRRI Mathura Road, Delhi - IMD","13-01-2026 14:00:00",28.5512005,77.2735737,CO,10,142,107
India,Delhi,Delhi,"DTU, Delhi - CPCB","13-01-2026 14:00:00",28.7500499,77.1112615,PM2.5,98,485,349
India,Delhi,Delhi,"Alipur, Delhi - DPCC","13-01-2026 14:00:00",28.815329,77.153010,NH3,17,25,20
India,Delhi,Delhi,"Anand Vihar, Delhi - DPCC","13-01-2026 14:00:00",28.647622,77.3158090,NH3,5,10,7
India,Delhi,Delhi,"Narela, Delhi - DPCC","13-01-2026 14:00:00",28.822836,77.101981,OZONE,2,81,38
India,Delhi,Delhi,"Nehru Nagar, Delhi - DPCC","13-01-2026 14:00:00",28.567890,77.250515,PM10,124,500,359
India,Delhi,Delhi,"Nehru Nagar, Delhi - DPCC","13-01-2026 14:00:00",28.567890,77.250515,NH3,6,11,8
India,Delhi,Delhi,"Nehru Nagar, Delhi - DPCC","13-01-2026 14:00:00",28.567890,77.250515,CO,113,194,137
India,Delhi,Delhi,"North Campus, DU, Delhi - IMD","13-01-2026 14:00:00",28.6573814,77.1585447,CO,22,125,104
India,Delhi,Delhi,"Okhla Phase-2, Delhi - DPCC","13-01-2026 14:00:00",28.530785,77.271255,NO2,111,290,190
India,Delhi,Delhi,"Patparganj, Delhi - DPCC","13-01-2026 14:00:00",28.623763,77.287209,PM10,121,451,287
India,Delhi,Delhi,"Punjabi Bagh, Delhi - DPCC","13-01-2026 14:00:00",28.674045,77.131023,PM2.5,2,500,367
India,Delhi,Delhi,"ITO, Delhi - CPCB","13-01-2026 14:00:00",28.628624,77.241060,OZONE,22,59,45
India,Delhi,Delhi,"Jahangirpuri, Delhi - DPCC","13-01-2026 14:00:00",28.732820,77.170633,NO2,75,124,93
India,Delhi,Delhi,"Jahangirpuri, Delhi - DPCC","13-01-2026 14:00:00",28.732820,77.170633,SO2,2,26,15
India,Delhi,Delhi,"Lodhi Road, Delhi - IMD","13-01-2026 14:00:00",28.5918245,77.2273074,PM2.5,65,406,291
India,Delhi,Delhi,"Lodhi Road, Delhi - IMD","13-01-2026 14:00:00",28.5918245,77.2273074,CO,28,103,80
India,Delhi,Delhi,"Major Dhyan Chand National Stadium, Delhi - DPCC","13-01-2026 14:00:00",28.611281,77.237738,OZONE,3,155,46
India,Delhi,Delhi,"Mandir Marg, Delhi - DPCC","13-01-2026 14:00:00",28.636429,77.201067,PM2.5,15,439,321
India,Delhi,Delhi,"Mandir Marg, Delhi - DPCC","13-01-2026 14:00:00",28.636429,77.201067,PM10,90,422,286
India,Delhi,Delhi,"Mandir Marg, Delhi - DPCC","13-01-2026 14:00:00",28.636429,77.201067,NH3,14,35,25
India,Delhi,Delhi,"Mandir Marg, Delhi - DPCC","13-01-2026 14:00:00",28.636429,77.201067,CO,22,146,60
India,Delhi,Delhi,"Mundka, Delhi - DPCC","13-01-2026 14:00:00",28.684678,77.076574,PM10,96,500,312
India,Delhi,Delhi,"Mundka, Delhi - DPCC","13-01-2026 14:00:00",28.684678,77.076574,NO2,36,118,73
India,Delhi,Delhi,"Mundka, Delhi - DPCC","13-01-2026 14:00:00",28.684678,77.076574,CO,34,133,70
India,Delhi,Delhi,"NSIT Dwarka, Delhi - CPCB","13-01-2026 14:00:00",28.60909,77.0325413,OZONE,22,43,28
India,Delhi,Delhi,"Najafgarh, Delhi - DPCC","13-01-2026 14:00:00",28.570173,76.933762,NO2,77,126,99
India,Delhi,Delhi,"Narela, Delhi - DPCC","13-01-2026 14:00:00",28.822836,77.101981,NO2,23,80,41
India,Gujarat,Ahmedabad,"SVPI Airport Hansol, Ahmedabad - IITM","13-01-2026 14:00:00",23.076793,72.627874,CO,1,62,11
India,Gujarat,Ankleshwar,"GIDC, Ankleshwar - GPCB","13-01-2026 14:00:00",21.613267,73.010555,PM10,76,464,225
India,Gujarat,Gandhinagar,"GIFT City, Gandhinagar - IITM","13-01-2026 14:00:00",23.163798,72.677768,PM2.5,44,90,66
India,Gujarat,Gandhinagar,"GIFT City, Gandhinagar - IITM","13-01-2026 14:00:00",23.163798,72.677768,PM10,126,195,150
India,Gujarat,Gandhinagar,"GIFT City, Gandhinagar - IITM","13-01-2026 14:00:00",23.163798,72.677768,NH3,6,15,8
India,Gujarat,Gandhinagar,"IIPHG Lekawada, Gandhinagar - IITM","13-01-2026 14:00:00",23.243639,72.68994,PM10,91,149,117
India,Gujarat,Gandhinagar,"IIPHG Lekawada, Gandhinagar - IITM","13-01-2026 14:00:00",23.243639,72.68994,NH3,NA,NA,NA
India,Gujarat,Ahmedabad,"Maninagar, Ahmedabad - GPCB","13-01-2026 14:00:00",23.002657,72.591912,CO,24,50,33
India,Gujarat,Ahmedabad,"Raikhad, Ahmedabad - IITM","13-01-2026 14:00:00",23.020509,72.579261,NH3,10,30,14
India,Gujarat,Ahmedabad,"Rakhial, Ahmedabad - IITM","13-01-2026 14:00:00",23.016834,72.625775,CO,13,160,33
India,Gujarat,Ahmedabad,"Rakhial, Ahmedabad - IITM","13-01-2026 14:00:00",23.016834,72.625775,OZONE,2,88,48
India,Gujarat,Ahmedabad,"SAC ISRO Bopal, Ahmedabad - IITM","13-01-2026 14:00:00",23.041137,72.456691,PM2.5,NA,NA,NA
India,Gujarat,Ahmedabad,"SAC ISRO Bopal, Ahmedabad - IITM","13-01-2026 14:00:00",23.041137,72.456691,SO2,2,22,6
India,Gujarat,Ahmedabad,"SAC ISRO Satellite, Ahmedabad - IITM","13-01-2026 14:00:00",23.023389,72.515201,CO,10,82,21
India,Delhi,Delhi,"Vivek Vihar, Delhi - DPCC","13-01-2026 14:00:00",28.672342,77.315260,NH3,11,15,12
India,Delhi,Delhi,"Vivek Vihar, Delhi - DPCC","13-01-2026 14:00:00",28.672342,77.315260,OZONE,3,150,38
India,Gujarat,Ahmedabad,"Gyaspur, Ahmedabad - IITM","13-01-2026 14:00:00",22.977134,72.553024,NO2,42,173,98
India,Gujarat,Ahmedabad,"Gyaspur, Ahmedabad - IITM","13-01-2026 14:00:00",22.977134,72.553024,OZONE,1,91,49
India,Gujarat,Ahmedabad,"Maninagar, Ahmedabad - GPCB","13-01-2026 14:00:00",23.002657,72.591912,PM2.5,24,149,79
India,Delhi,Delhi,"Punjabi Bagh, Delhi - DPCC","13-01-2026 14:00:00",28.674045,77.131023,SO2,10,28,20
India,Delhi,Delhi,"Pusa, Delhi - IMD","13-01-2026 14:00:00",28.636110,77.173332,OZONE,43,315,315
India,Delhi,Delhi,"R K Puram, Delhi - DPCC","13-01-2026 14:00:00",28.563262,77.186937,NH3,8,12,10
India,Delhi,Delhi,"Rohini, Delhi - DPCC","13-01-2026 14:00:00",28.732528,77.119920,PM2.5,150,500,407
India,Delhi,Delhi,"Rohini, Delhi - DPCC","13-01-2026 14:00:00",28.732528,77.119920,SO2,5,18,11
India,Delhi,Delhi,"Sonia Vihar, Delhi - DPCC","13-01-2026 14:00:00",28.710508,77.249485,PM2.5,170,428,340
India,Delhi,Delhi,"Sonia Vihar, Delhi - DPCC","13-01-2026 14:00:00",28.710508,77.249485,PM10,142,355,231
India,Delhi,Delhi,"Sonia Vihar, Delhi - DPCC","13-01-2026 14:00:00",28.710508,77.249485,NO2,31,71,49
India,Haryana,Ambala,"Patti Mehar, Ambala - HSPCB","13-01-2026 14:00:00",30.379589,76.778328,NO2,20,25,22
India,Haryana,Ambala,"Patti Mehar, Ambala - HSPCB","13-01-2026 14:00:00",30.379589,76.778328,CO,26,44,32
India,Haryana,Ambala,"Patti Mehar, Ambala - HSPCB","13-01-2026 14:00:00",30.379589,76.778328,OZONE,12,38,16
India,Haryana,Fatehabad,"Huda Sector, Fatehabad - HSPCB","13-01-2026 14:00:00",29.503664,75.467934,PM10,86,151,120
India,Haryana,Gurugram,"NISE Gwal Pahari, Gurugram - IMD","13-01-2026 14:00:00",28.422681,77.148944,PM10,116,500,302
India,Haryana,Gurugram,"NISE Gwal Pahari, Gurugram - IMD","13-01-2026 14:00:00",28.422681,77.148944,CO,43,133,117
India,Haryana,Gurugram,"Sector-51, Gurugram - HSPCB","13-01-2026 14:00:00",28.4227,77.0667,PM2.5,232,500,439
India,Haryana,Gurugram,"Sector-51, Gurugram - HSPCB","13-01-2026 14:00:00",28.4227,77.0667,OZONE,3,16,11
India,Haryana,Gurugram,"Teri Gram, Gurugram - HSPCB","13-01-2026 14:00:00",28.4275,77.1465,PM10,82,424,238
India,Haryana,Gurugram,"Teri Gram, Gurugram - HSPCB","13-01-2026 14:00:00",28.4275,77.1465,SO2,NA,NA,NA
India,Haryana,Gurugram,"Teri Gram, Gurugram - HSPCB","13-01-2026 14:00:00",28.4275,77.1465,OZONE,4,19,12
India,Haryana,Gurugram,"Vikas Sadan, Gurugram - HSPCB","13-01-2026 14:00:00",28.4501238,77.0263051,PM2.5,236,500,434
India,Haryana,Dharuhera,"Municipal Corporation Office, Dharuhera -  HSPCB","13-01-2026 14:00:00",28.206800,76.799700,PM2.5,132,460,360
India,Haryana,Dharuhera,"Municipal Corporation Office, Dharuhera -  HSPCB","13-01-2026 14:00:00",28.206800,76.799700,NO2,11,39,29
India,Haryana,Faridabad,"New Industrial Town, Faridabad - HSPCB","13-01-2026 14:00:00",28.39072,77.30059,NO2,24,27,25
India,Haryana,Faridabad,"New Industrial Town, Faridabad - HSPCB","13-01-2026 14:00:00",28.39072,77.30059,CO,10,13,12
India,Haryana,Faridabad,"Sector 11, Faridabad - HSPCB","13-01-2026 14:00:00",28.376058,77.315741,SO2,4,107,9
India,Haryana,Faridabad,"Sector 30, Faridabad - HSPCB","13-01-2026 14:00:00",28.4417,77.3217,PM2.5,222,233,225
India,Haryana,Faridabad,"Sector 30, Faridabad - HSPCB","13-01-2026 14:00:00",28.4417,77.3217,NH3,11,12,11
India,Haryana,Faridabad,"Sector 30, Faridabad - HSPCB","13-01-2026 14:00:00",28.4417,77.3217,SO2,6,6,6
India,Haryana,Kurukshetra,"Sector-7, Kurukshetra - HSPCB","13-01-2026 14:00:00",29.966942,76.875879,OZONE,1,33,4
India,Haryana,Mandikhera,"General Hospital, Mandikhera(Nuh) - HSPCB","13-01-2026 14:00:00",27.9002,76.9938,PM2.5,98,315,241
India,Haryana,Narnaul,"Shastri Nagar, Narnaul - HSPCB","13-01-2026 14:00:00",28.060249,76.113115,PM2.5,87,381,256
India,Haryana,Narnaul,"Shastri Nagar, Narnaul - HSPCB","13-01-2026 14:00:00",28.060249,76.113115,PM10,80,297,166
